[
  {
    "longitude": -151.820102,
    "latitude": 59.773222,
    "name": "Fireweed Meadows Golf Course",
    "city": "Anchor Point",
    "state": "AK",
    "street_address": "Mylofritz Ave"
  },
  {
    "longitude": -149.814495,
    "latitude": 61.127089,
    "name": "Anchorage Golf Course",
    "city": "Anchorage",
    "state": "AK",
    "street_address": "3651 Omalley Rd"
  },
  {
    "longitude": -149.788303,
    "latitude": 61.206435,
    "name": "Russian Jack Springs Golf Course",
    "city": "Anchorage",
    "state": "AK",
    "street_address": "1600 Lidia Selkregg Ln"
  },
  {
    "longitude": -149.853757,
    "latitude": 61.113415,
    "name": "Tanglewood Lakes Golf Club",
    "city": "Anchorage",
    "state": "AK",
    "street_address": "11801 Brayton Dr"
  },
  {
    "longitude": -149.824373,
    "latitude": 61.233041,
    "name": "Eagleglen Golf Course",
    "city": "Elmendorf Afb",
    "state": "AK",
    "street_address": "4414 1st St"
  },
  {
    "longitude": -147.816536,
    "latitude": 64.877632,
    "name": "Fairbanks Golf and Country Club",
    "city": "Fairbanks",
    "state": "AK",
    "street_address": "1735 Farmers Loop Rd"
  },
  {
    "longitude": -147.613637,
    "latitude": 64.89708,
    "name": "North Star Golf Course",
    "city": "Fairbanks",
    "state": "AK",
    "street_address": "330 Golf Club Dr"
  },
  {
    "longitude": -149.542309,
    "latitude": 61.24357,
    "name": "Moose Run Golf Course",
    "city": "Fort Richardson",
    "state": "AK",
    "street_address": "27000 Artic Valley Road"
  },
  {
    "longitude": -147.626814,
    "latitude": 64.814935,
    "name": "Chena Bend Golf Course",
    "city": "Fort Wainwright",
    "state": "AK",
    "street_address": "2092 Building Gafeney"
  },
  {
    "longitude": -135.742963,
    "latitude": 58.420408,
    "name": "Mount Fairweather Golf Course",
    "city": "Gustavus",
    "state": "AK",
    "street_address": "1 Mile Dock Road"
  },
  {
    "longitude": -135.481298,
    "latitude": 59.239917,
    "name": "Valley of the Eagles Golf Links",
    "city": "Haines",
    "state": "AK",
    "street_address": "1 1/2 Mile Haines Hwy"
  },
  {
    "longitude": -149.039817,
    "latitude": 63.848484,
    "name": "Black Diamond Golf Course",
    "city": "Healy",
    "state": "AK",
    "street_address": "Mile 247 George Park Hwy Otto Lake Rd"
  },
  {
    "longitude": -151.370752,
    "latitude": 59.692919,
    "name": "Kachemak Bay Links Par 3 Golf",
    "city": "Homer",
    "state": "AK",
    "street_address": "56910 East Rd"
  },
  {
    "longitude": -134.610092,
    "latitude": 58.361763,
    "name": "Mendenhall Golf Course",
    "city": "Juneau",
    "state": "AK",
    "street_address": "The End of Industrial Blvd"
  },
  {
    "longitude": -151.183901,
    "latitude": 60.559592,
    "name": "Kenai Golf Course",
    "city": "Kenai",
    "state": "AK",
    "street_address": "1420 Lawton Dr"
  },
  {
    "longitude": -152.527572,
    "latitude": 57.772932,
    "name": "Bear Valley Golf Course",
    "city": "Kodiak",
    "state": "AK",
    "street_address": "2 8 Mile Anton Larsen Bay Rd"
  },
  {
    "longitude": -151.291629,
    "latitude": 60.690101,
    "name": "Cottonwood Country Club",
    "city": "Nikiski",
    "state": "AK",
    "street_address": "Mile Post 32"
  },
  {
    "longitude": -149.087712,
    "latitude": 61.584757,
    "name": "Palmer Golf Course",
    "city": "Palmer",
    "state": "AK",
    "street_address": "1000 Lepak Avenue"
  },
  {
    "longitude": -135.395965,
    "latitude": 57.101605,
    "name": "Sea Mountain Golf Course",
    "city": "Sitka",
    "state": "AK",
    "street_address": "301 Granite Creek Rd"
  },
  {
    "longitude": -151.007643,
    "latitude": 60.499382,
    "name": "Birch Ridge Golf Course Inc",
    "city": "Soldotna",
    "state": "AK",
    "street_address": "42223 Sterling Hwy"
  },
  {
    "longitude": -150.856551,
    "latitude": 60.498969,
    "name": "Bird Homestead Golf Course",
    "city": "Soldotna",
    "state": "AK",
    "street_address": "37109 Funny River Rd"
  },
  {
    "longitude": -149.613961,
    "latitude": 61.504628,
    "name": "Settlers Bay Golf Course",
    "city": "Wasilla",
    "state": "AK",
    "street_address": "Mile 8 Knik Goose Bay Road"
  },
  {
    "longitude": -149.382193,
    "latitude": 61.655225,
    "name": "Sleepy Hollow Golf Course",
    "city": "Wasilla",
    "state": "AK",
    "street_address": "2721 E Sleepy Hollow Cir"
  },
  {
    "longitude": -132.356586,
    "latitude": 56.473241,
    "name": "Muskeg Meadows Golf Course",
    "city": "Wrangell",
    "state": "AK",
    "street_address": "Ishiyama Dr"
  },
  {
    "longitude": -86.198381,
    "latitude": 34.296785,
    "name": "Albertville Golf & Country Club",
    "city": "Albertville",
    "state": "AL",
    "street_address": "860 Country Club Rd"
  },
  {
    "longitude": -86.11883,
    "latitude": 34.3553,
    "name": "Willow Brook Golf Corp",
    "city": "Albertville",
    "state": "AL",
    "street_address": "134 Par Dr"
  },
  {
    "longitude": -85.976846,
    "latitude": 32.788959,
    "name": "Willow Point Golf & Country Club",
    "city": "Alexander City",
    "state": "AL",
    "street_address": "3054 Willow Point Rd"
  },
  {
    "longitude": -88.141013,
    "latitude": 33.102758,
    "name": "Aliceville Country Club",
    "city": "Aliceville",
    "state": "AL",
    "street_address": "Highway 14 North"
  },
  {
    "longitude": -86.300495,
    "latitude": 33.434675,
    "name": "Alpine Bay Resort",
    "city": "Alpine",
    "state": "AL",
    "street_address": "9855 Renfroe Rd"
  },
  {
    "longitude": -86.435707,
    "latitude": 34.113605,
    "name": "Whippoorwill Golf Club",
    "city": "Altoona",
    "state": "AL",
    "street_address": "2920 County Highway 14"
  },
  {
    "longitude": -86.451201,
    "latitude": 31.321218,
    "name": "Evans Barnes Golf Course",
    "city": "Andalusia",
    "state": "AL",
    "street_address": "Lurleen B Wallace Jr College"
  },
  {
    "longitude": -86.511445,
    "latitude": 31.315197,
    "name": "Andalusia Country Club",
    "city": "Andalusia",
    "state": "AL",
    "street_address": "210 Country Club Dr"
  },
  {
    "longitude": -86.377095,
    "latitude": 31.344885,
    "name": "Old Pine Golf Course",
    "city": "Andalusia",
    "state": "AL",
    "street_address": "24908 Harmony Church Rd"
  },
  {
    "longitude": -85.810966,
    "latitude": 33.665031,
    "name": "Anniston Municipal Golf Course",
    "city": "Anniston",
    "state": "AL",
    "street_address": "1341 Johnston Dr"
  },
  {
    "longitude": -85.792399,
    "latitude": 33.71603,
    "name": "Cane Creek Golf Course",
    "city": "Anniston",
    "state": "AL",
    "street_address": "2247 Baltzell Gate Road"
  },
  {
    "longitude": -85.818524,
    "latitude": 33.651845,
    "name": "Anniston Country Club",
    "city": "Anniston",
    "state": "AL",
    "street_address": "601 Highland Ave"
  },
  {
    "longitude": -85.87225,
    "latitude": 33.730704,
    "name": "Indian Oaks Golf Club",
    "city": "Anniston",
    "state": "AL",
    "street_address": "201 Cherokee Trl"
  },
  {
    "longitude": -85.703307,
    "latitude": 33.671577,
    "name": "Pine Hill Country Club",
    "city": "Anniston",
    "state": "AL",
    "street_address": "175 Pine Hill Dr"
  },
  {
    "longitude": -86.511111,
    "latitude": 34.326222,
    "name": "Brookside Golf Course",
    "city": "Arab",
    "state": "AL",
    "street_address": "Sundown Drive"
  },
  {
    "longitude": -86.498066,
    "latitude": 34.343263,
    "name": "Twin Lakes Golf Course",
    "city": "Arab",
    "state": "AL",
    "street_address": "211 Golfview Dr NE"
  },
  {
    "longitude": -85.798765,
    "latitude": 33.280444,
    "name": "Clay County Golf Course",
    "city": "Ashland",
    "state": "AL",
    "street_address": "158 Country Club Rd"
  },
  {
    "longitude": -86.954304,
    "latitude": 34.759613,
    "name": "Athens Golf & Country Club",
    "city": "Athens",
    "state": "AL",
    "street_address": "518 Hatfield Lake Rd"
  },
  {
    "longitude": -86.91543,
    "latitude": 34.763744,
    "name": "Canebrake Golf Club",
    "city": "Athens",
    "state": "AL",
    "street_address": "23015 Founders Cir"
  },
  {
    "longitude": -86.857802,
    "latitude": 34.802979,
    "name": "Chriswood Golf Course",
    "city": "Athens",
    "state": "AL",
    "street_address": "26181 Nick Davis Road"
  },
  {
    "longitude": -86.875101,
    "latitude": 34.879828,
    "name": "Southern Gayles Golf Community",
    "city": "Athens",
    "state": "AL",
    "street_address": "22230 Mooresville Rd"
  },
  {
    "longitude": -87.492589,
    "latitude": 31.02483,
    "name": "Atmore Country Club",
    "city": "Atmore",
    "state": "AL",
    "street_address": "4474 Highway 31 South"
  },
  {
    "longitude": -86.096727,
    "latitude": 34.009726,
    "name": "Wills Creek Country Club",
    "city": "Attalla",
    "state": "AL",
    "street_address": "216 Country Club Rd"
  },
  {
    "longitude": -85.441306,
    "latitude": 32.62367,
    "name": "Indian Pines Golf Course",
    "city": "Auburn",
    "state": "AL",
    "street_address": "900 Country Club Dr"
  },
  {
    "longitude": -85.505203,
    "latitude": 32.632656,
    "name": "The Auburn University Club",
    "city": "Auburn",
    "state": "AL",
    "street_address": "1650 Yarbrough Farms Blvd"
  },
  {
    "longitude": -85.507329,
    "latitude": 32.554634,
    "name": "Auburn Links At Mill Creek",
    "city": "Auburn",
    "state": "AL",
    "street_address": "826 Shell Toomer Pkwy"
  },
  {
    "longitude": -85.445537,
    "latitude": 32.580497,
    "name": "Moore's Mill Golf Club",
    "city": "Auburn",
    "state": "AL",
    "street_address": "1957 Fairway Dr"
  },
  {
    "longitude": -87.773055,
    "latitude": 30.787791,
    "name": "Holly Hills Country Club",
    "city": "Bay Minette",
    "state": "AL",
    "street_address": "Highway 59 South"
  },
  {
    "longitude": -86.991577,
    "latitude": 33.367315,
    "name": "Frank House Municipal Golf Course",
    "city": "Bessemer",
    "state": "AL",
    "street_address": "801 Golf Course Rd"
  },
  {
    "longitude": -86.957834,
    "latitude": 33.428521,
    "name": "Woodward Golf & Country Club",
    "city": "Bessemer",
    "state": "AL",
    "street_address": "2141 Wheel Dr"
  },
  {
    "longitude": -86.973348,
    "latitude": 33.33316,
    "name": "Bent Brook Golf Course",
    "city": "Bessemer",
    "state": "AL",
    "street_address": "7900 Dickey Springs Rd"
  },
  {
    "longitude": -86.711209,
    "latitude": 33.582031,
    "name": "Roebuck Municipal Golf Course",
    "city": "Birmingham",
    "state": "AL",
    "street_address": "8920 Roebuck Blvd"
  },
  {
    "longitude": -86.642887,
    "latitude": 33.645754,
    "name": "Grayson Valley Country Club",
    "city": "Birmingham",
    "state": "AL",
    "street_address": "2201 Grayson Valley Dr"
  },
  {
    "longitude": -86.651369,
    "latitude": 33.429533,
    "name": "Greystone Golf & Country Club",
    "city": "Birmingham",
    "state": "AL",
    "street_address": "4100 Greystone Dr"
  },
  {
    "longitude": -86.622465,
    "latitude": 33.454637,
    "name": "Greystone Golf & Country Club",
    "city": "Birmingham",
    "state": "AL",
    "street_address": "330 Legacy Way"
  },
  {
    "longitude": -86.81748,
    "latitude": 33.399573,
    "name": "Hoover Country Club",
    "city": "Birmingham",
    "state": "AL",
    "street_address": "3140 Club Dr"
  },
  {
    "longitude": -86.653914,
    "latitude": 33.527852,
    "name": "Pine Tree Country Club",
    "city": "Birmingham",
    "state": "AL",
    "street_address": "5100 Pine Whispers Dr"
  },
  {
    "longitude": -86.772297,
    "latitude": 33.454757,
    "name": "Vestavia Country Club",
    "city": "Birmingham",
    "state": "AL",
    "street_address": "400 Beaumont Dr"
  },
  {
    "longitude": -86.744309,
    "latitude": 33.495525,
    "name": "Mountain Brook Club",
    "city": "Birmingham",
    "state": "AL",
    "street_address": "19 Beechwood Rd"
  },
  {
    "longitude": -86.748825,
    "latitude": 33.417863,
    "name": "Altadena Valley Golf & Country Club",
    "city": "Birmingham",
    "state": "AL",
    "street_address": "2651 Alta Vista Dr"
  },
  {
    "longitude": -86.749207,
    "latitude": 33.397505,
    "name": "Heatherwood Country Club",
    "city": "Birmingham",
    "state": "AL",
    "street_address": "400 Saint Annes Dr"
  },
  {
    "longitude": -86.766597,
    "latitude": 33.496983,
    "name": "Inverness Country Club",
    "city": "Birmingham",
    "state": "AL",
    "street_address": "1 Country Club Drive"
  },
  {
    "longitude": -86.826049,
    "latitude": 33.338098,
    "name": "Riverchase Country Club",
    "city": "Birmingham",
    "state": "AL",
    "street_address": "2000 Club Rd"
  },
  {
    "longitude": -86.765447,
    "latitude": 33.49841,
    "name": "Country Club of Birmingham",
    "city": "Birmingham",
    "state": "AL",
    "street_address": "3325 Country Club Rd"
  },
  {
    "longitude": -86.669263,
    "latitude": 33.399671,
    "name": "Eagle Point Golf Club",
    "city": "Birmingham",
    "state": "AL",
    "street_address": "4500 Eagle Point Dr"
  },
  {
    "longitude": -86.877968,
    "latitude": 33.419409,
    "name": "Robert Trent Jones Golf Trail At Oxmoor Valley",
    "city": "Birmingham",
    "state": "AL",
    "street_address": "100 Sunbelt Pkwy"
  },
  {
    "longitude": -86.879498,
    "latitude": 33.392116,
    "name": "Ross Bridge Golf Resort",
    "city": "Birmingham",
    "state": "AL",
    "street_address": "167 Sunbelt Pkwy"
  },
  {
    "longitude": -86.89096,
    "latitude": 33.468352,
    "name": "West Side Golf Center",
    "city": "Birmingham",
    "state": "AL",
    "street_address": "3501 Cleburn Ave SW"
  },
  {
    "longitude": -86.779392,
    "latitude": 33.512479,
    "name": "Highland Park Golf Course",
    "city": "Birmingham",
    "state": "AL",
    "street_address": "3300 Highland Ave S"
  },
  {
    "longitude": -86.153561,
    "latitude": 34.173445,
    "name": "Boaz Golf Club",
    "city": "Boaz",
    "state": "AL",
    "street_address": "1715 Al Highway 205"
  },
  {
    "longitude": -87.068132,
    "latitude": 31.144816,
    "name": "Dogwood Hills Golf Course",
    "city": "Brewton",
    "state": "AL",
    "street_address": "2385 Douglas Ave"
  },
  {
    "longitude": -87.059413,
    "latitude": 31.209551,
    "name": "Country Club of Brewton",
    "city": "Brewton",
    "state": "AL",
    "street_address": "700 Clubhouse Rd"
  },
  {
    "longitude": -87.33057,
    "latitude": 33.237681,
    "name": "Capstone Golf Club",
    "city": "Brookwood",
    "state": "AL",
    "street_address": "16000 Capstone Blvd"
  },
  {
    "longitude": -85.816771,
    "latitude": 31.7202,
    "name": "Brundidge Country Club",
    "city": "Brundidge",
    "state": "AL",
    "street_address": "Spring Hill Road"
  },
  {
    "longitude": -85.661585,
    "latitude": 34.974544,
    "name": "Hidden Valley Golf Course",
    "city": "Bryant",
    "state": "AL",
    "street_address": "607 County Road 393"
  },
  {
    "longitude": -88.188385,
    "latitude": 32.090062,
    "name": "Choctaw Country Club",
    "city": "Butler",
    "state": "AL",
    "street_address": "Country Club Drive"
  },
  {
    "longitude": -86.734914,
    "latitude": 33.102898,
    "name": "Timberline Golf Club",
    "city": "Calera",
    "state": "AL",
    "street_address": "300 Timberline Trl"
  },
  {
    "longitude": -87.245535,
    "latitude": 32.055353,
    "name": "Roland Cooper State Park Golf Course",
    "city": "Camden",
    "state": "AL",
    "street_address": "285 Deer Run Dr"
  },
  {
    "longitude": -85.647439,
    "latitude": 34.112623,
    "name": "Cherokee Country Club",
    "city": "Centre",
    "state": "AL",
    "street_address": "Off Highway 9"
  },
  {
    "longitude": -87.137499,
    "latitude": 32.968185,
    "name": "Cahaba Falls Country Club",
    "city": "Centreville",
    "state": "AL",
    "street_address": "530 2nd Street North"
  },
  {
    "longitude": -88.205439,
    "latitude": 31.454237,
    "name": "Deerfield Country Club",
    "city": "Chatom",
    "state": "AL",
    "street_address": "16461 Saint Stephens Ave"
  },
  {
    "longitude": -86.71452,
    "latitude": 33.322705,
    "name": "Deer Valley Links",
    "city": "Chelsea",
    "state": "AL",
    "street_address": "246 Cain Rd"
  },
  {
    "longitude": -86.358914,
    "latitude": 33.334061,
    "name": "Coosa Pines Golf Course",
    "city": "Childersburg",
    "state": "AL",
    "street_address": "16615 Plant Rd"
  },
  {
    "longitude": -88.310005,
    "latitude": 31.073651,
    "name": "Mill Creek",
    "city": "Citronelle",
    "state": "AL",
    "street_address": "18350 Lakeview Dr"
  },
  {
    "longitude": -86.609619,
    "latitude": 32.81974,
    "name": "Clanton Country Club",
    "city": "Clanton",
    "state": "AL",
    "street_address": "1 Country Club Drive"
  },
  {
    "longitude": -86.605427,
    "latitude": 33.169582,
    "name": "Magnolia Meadows Golf Course",
    "city": "Columbiana",
    "state": "AL",
    "street_address": "315 Highway 47 S"
  },
  {
    "longitude": -87.134163,
    "latitude": 33.791068,
    "name": "Riverbend Golf Course",
    "city": "Cordova",
    "state": "AL",
    "street_address": "1612 Mountain View Rd"
  },
  {
    "longitude": -87.351811,
    "latitude": 34.670338,
    "name": "Valley Landing Golf Course",
    "city": "Courtland",
    "state": "AL",
    "street_address": "985 County Road 595"
  },
  {
    "longitude": -85.306541,
    "latitude": 31.226876,
    "name": "Roundabout Plantation",
    "city": "Cowarts",
    "state": "AL",
    "street_address": "321 Roundabout Dr"
  },
  {
    "longitude": -86.889256,
    "latitude": 34.224233,
    "name": "Terri Pines Country Club",
    "city": "Cullman",
    "state": "AL",
    "street_address": "700 Pine Hill Dr"
  },
  {
    "longitude": -86.670194,
    "latitude": 34.249113,
    "name": "Chesley Oaks Golf Course",
    "city": "Cullman",
    "state": "AL",
    "street_address": "1035 County Road 1583"
  },
  {
    "longitude": -85.805971,
    "latitude": 32.745816,
    "name": "StillWaters Golf and Country Club",
    "city": "Dadeville",
    "state": "AL",
    "street_address": "797 Moonbrook Dr"
  },
  {
    "longitude": -87.895203,
    "latitude": 30.649638,
    "name": "Lake Forest Yacht & Country Club",
    "city": "Daphne",
    "state": "AL",
    "street_address": "1 Golf Ter"
  },
  {
    "longitude": -88.11597,
    "latitude": 30.247426,
    "name": "Isle Dauphine Club Golf Course",
    "city": "Dauphin Island",
    "state": "AL",
    "street_address": "100 Orleans Dr"
  },
  {
    "longitude": -86.930105,
    "latitude": 34.545337,
    "name": "Point Mallard Golf Club",
    "city": "Decatur",
    "state": "AL",
    "street_address": "2600A Point Mallard Pkwy SE"
  },
  {
    "longitude": -86.96625,
    "latitude": 34.567514,
    "name": "Decatur Country Club",
    "city": "Decatur",
    "state": "AL",
    "street_address": "2401 Country Club Rd SE"
  },
  {
    "longitude": -86.933742,
    "latitude": 34.518897,
    "name": "Burningtree Country Club",
    "city": "Decatur",
    "state": "AL",
    "street_address": "2521 Burningtree Dr SE"
  },
  {
    "longitude": -87.049833,
    "latitude": 34.561342,
    "name": "Cedar Ridge Golf Course",
    "city": "Decatur",
    "state": "AL",
    "street_address": "3030 Modaus Rd SW"
  },
  {
    "longitude": -86.931083,
    "latitude": 34.494825,
    "name": "Indian Hills Golf Course",
    "city": "Decatur",
    "state": "AL",
    "street_address": "127 Par Dr"
  },
  {
    "longitude": -87.791047,
    "latitude": 32.486124,
    "name": "The Ravine Golf Course",
    "city": "Demopolis",
    "state": "AL",
    "street_address": "748 Sportsplex Road"
  },
  {
    "longitude": -87.859405,
    "latitude": 32.499999,
    "name": "Demopolis Country Club",
    "city": "Demopolis",
    "state": "AL",
    "street_address": "1620 Country Club Dr"
  },
  {
    "longitude": -87.058918,
    "latitude": 33.750913,
    "name": "Horse Creek Golf Club",
    "city": "Dora",
    "state": "AL",
    "street_address": "1745 Highway 78"
  },
  {
    "longitude": -85.417632,
    "latitude": 31.22387,
    "name": "Dothan Country Club",
    "city": "Dothan",
    "state": "AL",
    "street_address": "200 S Cherokee Ave"
  },
  {
    "longitude": -85.404517,
    "latitude": 31.120801,
    "name": "Dothan National Golf Club & Hotel",
    "city": "Dothan",
    "state": "AL",
    "street_address": "7410 S U S 231"
  },
  {
    "longitude": -85.421542,
    "latitude": 31.15937,
    "name": "Green Hill Golf Course",
    "city": "Dothan",
    "state": "AL",
    "street_address": "2600 Campbellton Hwy"
  },
  {
    "longitude": -85.49638,
    "latitude": 31.226907,
    "name": "Highland Oaks Golf Course",
    "city": "Dothan",
    "state": "AL",
    "street_address": "904 Royal Pkwy"
  },
  {
    "longitude": -85.49638,
    "latitude": 31.226907,
    "name": "Highland Oaks Par 3 Golf Course",
    "city": "Dothan",
    "state": "AL",
    "street_address": "904 Royal Pkwy"
  },
  {
    "longitude": -88.168015,
    "latitude": 30.756027,
    "name": "High Pointe Golf Club",
    "city": "Eight Mile",
    "state": "AL",
    "street_address": "4603 Golfway Dr"
  },
  {
    "longitude": -86.097119,
    "latitude": 31.437234,
    "name": "Elba Country Club",
    "city": "Elba",
    "state": "AL",
    "street_address": "1477 Country Club Way"
  },
  {
    "longitude": -87.547564,
    "latitude": 30.403182,
    "name": "Soldiers Creek Golf Club At Woerner Preserve",
    "city": "Elberta",
    "state": "AL",
    "street_address": "12096 County Road 95"
  },
  {
    "longitude": -86.956142,
    "latitude": 33.792773,
    "name": "Marcum Golf Course",
    "city": "Empire",
    "state": "AL",
    "street_address": "9621 Bagley Rd"
  },
  {
    "longitude": -85.831816,
    "latitude": 31.360296,
    "name": "Enterprise Country Club",
    "city": "Enterprise",
    "state": "AL",
    "street_address": "3000 Ozark Hwy"
  },
  {
    "longitude": -85.879854,
    "latitude": 31.312646,
    "name": "Tartan Pines Golf Club",
    "city": "Enterprise",
    "state": "AL",
    "street_address": "423 Tartan Way"
  },
  {
    "longitude": -85.114176,
    "latitude": 31.98767,
    "name": "Lake Point Resort State Park Golf Course",
    "city": "Eufaula",
    "state": "AL",
    "street_address": "104 Lakepoint Dr"
  },
  {
    "longitude": -85.172012,
    "latitude": 31.88752,
    "name": "Eufaula Country Club",
    "city": "Eufaula",
    "state": "AL",
    "street_address": "2650 Country Club Rd"
  },
  {
    "longitude": -85.157631,
    "latitude": 31.821922,
    "name": "Red Eagle Golf Course",
    "city": "Eufaula",
    "state": "AL",
    "street_address": "101 Merion Dr"
  },
  {
    "longitude": -87.938072,
    "latitude": 32.852601,
    "name": "Greene County Golf Course",
    "city": "Eutaw",
    "state": "AL",
    "street_address": "Lower Gainesville Road"
  },
  {
    "longitude": -86.887753,
    "latitude": 31.43712,
    "name": "Evergreen Golf Course",
    "city": "Evergreen",
    "state": "AL",
    "street_address": "Highway 31 North"
  },
  {
    "longitude": -87.844066,
    "latitude": 30.513396,
    "name": "Quail Creek Golf Course",
    "city": "Fairhope",
    "state": "AL",
    "street_address": "19841 Quail Creek Dr"
  },
  {
    "longitude": -87.88837,
    "latitude": 30.573041,
    "name": "Rock Creek Golf Club",
    "city": "Fairhope",
    "state": "AL",
    "street_address": "140 Clubhouse Dr"
  },
  {
    "longitude": -87.872075,
    "latitude": 33.685932,
    "name": "Fayette Country Club",
    "city": "Fayette",
    "state": "AL",
    "street_address": "303 County Road 16"
  },
  {
    "longitude": -85.658124,
    "latitude": 34.824072,
    "name": "Dogwood Hills Golf Club",
    "city": "Flat Rock",
    "state": "AL",
    "street_address": "26460 Al Highway 71"
  },
  {
    "longitude": -87.630083,
    "latitude": 34.861748,
    "name": "Blackberry Trail Golf Course",
    "city": "Florence",
    "state": "AL",
    "street_address": "112 Clubhouse Dr"
  },
  {
    "longitude": -87.714906,
    "latitude": 34.810585,
    "name": "Florence Golf & Country Club",
    "city": "Florence",
    "state": "AL",
    "street_address": "450 Country Club Dr"
  },
  {
    "longitude": -87.637127,
    "latitude": 30.364024,
    "name": "Glenlakes Golf Club",
    "city": "Foley",
    "state": "AL",
    "street_address": "9530 Clubhouse Dr"
  },
  {
    "longitude": -87.682934,
    "latitude": 30.357377,
    "name": "Gulf Links Executive Golf Course",
    "city": "Foley",
    "state": "AL",
    "street_address": "3901 S McKenzie St"
  },
  {
    "longitude": -87.768043,
    "latitude": 30.381983,
    "name": "Magnolia Springs Golf",
    "city": "Foley",
    "state": "AL",
    "street_address": "10831 Magnolia Springs Hwy"
  },
  {
    "longitude": -85.694491,
    "latitude": 34.462253,
    "name": "De Soto Country Club",
    "city": "Fort Payne",
    "state": "AL",
    "street_address": "502 Crystal Lake Dr NE"
  },
  {
    "longitude": -85.687898,
    "latitude": 34.509586,
    "name": "Terrapin Hills Country Club",
    "city": "Fort Payne",
    "state": "AL",
    "street_address": "5501 Club Dr NW"
  },
  {
    "longitude": -85.692736,
    "latitude": 31.352046,
    "name": "Silver Wings Golf Course",
    "city": "Fort Rucker",
    "state": "AL",
    "street_address": "Combat Road Bldg 20067"
  },
  {
    "longitude": -85.985059,
    "latitude": 34.025973,
    "name": "Twin Bridges Golf Course",
    "city": "Gadsden",
    "state": "AL",
    "street_address": "901 Riverbend Dr"
  },
  {
    "longitude": -86.012825,
    "latitude": 33.975807,
    "name": "Gadsden Country Club",
    "city": "Gadsden",
    "state": "AL",
    "street_address": "1884 Rainbow Dr"
  },
  {
    "longitude": -85.986479,
    "latitude": 34.01053,
    "name": "River Trace Golf Club",
    "city": "Gadsden",
    "state": "AL",
    "street_address": "464 Nowlin St"
  },
  {
    "longitude": -86.781718,
    "latitude": 33.660967,
    "name": "Castle Pines Country Club",
    "city": "Gardendale",
    "state": "AL",
    "street_address": "1600 Quail Ridge Dr"
  },
  {
    "longitude": -85.862528,
    "latitude": 31.028007,
    "name": "River Oaks Golf Course",
    "city": "Geneva",
    "state": "AL",
    "street_address": "203 River Oaks Rd"
  },
  {
    "longitude": -85.946376,
    "latitude": 33.96101,
    "name": "Briarmeade Golf Course",
    "city": "Glencoe",
    "state": "AL",
    "street_address": "505 Ralph Ave"
  },
  {
    "longitude": -85.927814,
    "latitude": 33.884072,
    "name": "The Robert Trent Jones Golf Trail At Silver Lake",
    "city": "Glencoe",
    "state": "AL",
    "street_address": "1 Sunbelt Pkwy"
  },
  {
    "longitude": -85.927814,
    "latitude": 33.884072,
    "name": "The Robert Trent Jones Golf Trail Par 3 At Silver Lake",
    "city": "Glencoe",
    "state": "AL",
    "street_address": "1 Sunbelt Pkwy"
  },
  {
    "longitude": -86.099665,
    "latitude": 33.056103,
    "name": "Hatchett Creek Golf Course",
    "city": "Goodwater",
    "state": "AL",
    "street_address": "Mount Olive Road"
  },
  {
    "longitude": -86.940498,
    "latitude": 33.633344,
    "name": "Mountain View Golf Course",
    "city": "Graysville",
    "state": "AL",
    "street_address": "3200 Mountain View Dr"
  },
  {
    "longitude": -87.634199,
    "latitude": 32.693137,
    "name": "Lakeview Country Club",
    "city": "Greensboro",
    "state": "AL",
    "street_address": "Millwood Road"
  },
  {
    "longitude": -86.639508,
    "latitude": 31.846232,
    "name": "Greenville Country Club",
    "city": "Greenville",
    "state": "AL",
    "street_address": "902 Fort Dale Rd"
  },
  {
    "longitude": -86.686282,
    "latitude": 31.896111,
    "name": "The Robert Trent Jones Golf Trail At Cambrian Ridg",
    "city": "Greenville",
    "state": "AL",
    "street_address": "101 Sunbelt Pkwy"
  },
  {
    "longitude": -87.905842,
    "latitude": 33.971968,
    "name": "Pikeville Country Club",
    "city": "Guin",
    "state": "AL",
    "street_address": "1310 Country Club Rd"
  },
  {
    "longitude": -87.678015,
    "latitude": 30.265806,
    "name": "Gulf State Park Golf Course",
    "city": "Gulf Shores",
    "state": "AL",
    "street_address": "20115 State Highway 135"
  },
  {
    "longitude": -87.669298,
    "latitude": 30.304795,
    "name": "Craft Farms Golf Resort",
    "city": "Gulf Shores",
    "state": "AL",
    "street_address": "3840 Cotton Creek Blvd"
  },
  {
    "longitude": -87.888474,
    "latitude": 30.235553,
    "name": "Kiva Dunes",
    "city": "Gulf Shores",
    "state": "AL",
    "street_address": "815 Plantation Rd"
  },
  {
    "longitude": -87.773899,
    "latitude": 30.251587,
    "name": "Peninsula Golf & Racquet Club",
    "city": "Gulf Shores",
    "state": "AL",
    "street_address": "20 Peninsula Blvd"
  },
  {
    "longitude": -87.701114,
    "latitude": 30.270101,
    "name": "The Golf Club of the Wharf",
    "city": "Gulf Shores",
    "state": "AL",
    "street_address": "520 Clubhouse Dr"
  },
  {
    "longitude": -86.217249,
    "latitude": 34.369603,
    "name": "Lake Guntersville State Park Golf Course",
    "city": "Guntersville",
    "state": "AL",
    "street_address": "7966 Al Highway 227"
  },
  {
    "longitude": -86.255397,
    "latitude": 34.394562,
    "name": "Gunter's Landing",
    "city": "Guntersville",
    "state": "AL",
    "street_address": "1000 Gunters Landing Rd"
  },
  {
    "longitude": -86.388367,
    "latitude": 34.374594,
    "name": "Stoney Mountain Golf Course",
    "city": "Guntersville",
    "state": "AL",
    "street_address": "5200 Georgia Mountain Rd"
  },
  {
    "longitude": -87.604364,
    "latitude": 34.277349,
    "name": "Haleyville Country Club",
    "city": "Haleyville",
    "state": "AL",
    "street_address": "1331 Airport Road"
  },
  {
    "longitude": -86.831362,
    "latitude": 34.110408,
    "name": "Cullman Municipal Golf Club",
    "city": "Hanceville",
    "state": "AL",
    "street_address": "2321 County Road 490"
  },
  {
    "longitude": -86.863833,
    "latitude": 34.390421,
    "name": "Quail Creek Golf Course & Conference Center",
    "city": "Hartselle",
    "state": "AL",
    "street_address": "233 Quail Creek Dr"
  },
  {
    "longitude": -86.740041,
    "latitude": 34.859823,
    "name": "Harvest Hills",
    "city": "Harvest",
    "state": "AL",
    "street_address": "791 Harvest Rd"
  },
  {
    "longitude": -86.668003,
    "latitude": 33.949571,
    "name": "Plantation Golf Club",
    "city": "Hayden",
    "state": "AL",
    "street_address": "11900 State Highway 160"
  },
  {
    "longitude": -85.260701,
    "latitude": 31.351977,
    "name": "Headland Country Club",
    "city": "Headland",
    "state": "AL",
    "street_address": "4175 State Highway 134 E"
  },
  {
    "longitude": -86.372523,
    "latitude": 34.16761,
    "name": "Silver Ridge Golf Club",
    "city": "Horton",
    "state": "AL",
    "street_address": "195 Golf Club Dr"
  },
  {
    "longitude": -86.584758,
    "latitude": 34.688979,
    "name": "Huntsville Municipal Golf Course",
    "city": "Huntsville",
    "state": "AL",
    "street_address": "2151 Airport Rd SW"
  },
  {
    "longitude": -86.612913,
    "latitude": 34.749339,
    "name": "Huntsville Country Club",
    "city": "Huntsville",
    "state": "AL",
    "street_address": "2601 Oakwood Ave NW"
  },
  {
    "longitude": -86.543117,
    "latitude": 34.657309,
    "name": "Valley Hill Country Club",
    "city": "Huntsville",
    "state": "AL",
    "street_address": "8300 Valley Hill Dr SE"
  },
  {
    "longitude": -86.668185,
    "latitude": 34.698434,
    "name": "Redstone Golf Course",
    "city": "Huntsville",
    "state": "AL",
    "street_address": "4140 Goss Road"
  },
  {
    "longitude": -86.518341,
    "latitude": 34.671148,
    "name": "The Ledges Country Club",
    "city": "Huntsville",
    "state": "AL",
    "street_address": "32 Castle Down Dr"
  },
  {
    "longitude": -86.714329,
    "latitude": 34.75548,
    "name": "Monrovia Golf Course",
    "city": "Huntsville",
    "state": "AL",
    "street_address": "7130B Highway 72 W"
  },
  {
    "longitude": -86.773548,
    "latitude": 34.658224,
    "name": "Sunset Landing Golf Course",
    "city": "Huntsville",
    "state": "AL",
    "street_address": "346 James Record Rd SW"
  },
  {
    "longitude": -88.228975,
    "latitude": 30.44651,
    "name": "Silver King Golf Club",
    "city": "Irvington",
    "state": "AL",
    "street_address": "7960 Edgar Roberts Rd"
  },
  {
    "longitude": -87.891251,
    "latitude": 31.507903,
    "name": "Jackson Links Golf Course",
    "city": "Jackson",
    "state": "AL",
    "street_address": "Pierce Memorial Park"
  },
  {
    "longitude": -85.873055,
    "latitude": 32.885532,
    "name": "Lake Winds Golf Course",
    "city": "Jacksons Gap",
    "state": "AL",
    "street_address": "95 County Road 40"
  },
  {
    "longitude": -85.773421,
    "latitude": 33.784875,
    "name": "Stoney Brook Golf Course",
    "city": "Jacksonville",
    "state": "AL",
    "street_address": "1505 Country Club Dr SW"
  },
  {
    "longitude": -87.287201,
    "latitude": 33.905893,
    "name": "Musgrove Country Club",
    "city": "Jasper",
    "state": "AL",
    "street_address": "916 Country Club Rd"
  },
  {
    "longitude": -87.211115,
    "latitude": 33.958805,
    "name": "Curry Golf Course",
    "city": "Jasper",
    "state": "AL",
    "street_address": "100 Boardwalk Ln"
  },
  {
    "longitude": -87.327934,
    "latitude": 33.835633,
    "name": "Bear Branch Golf Club",
    "city": "Jasper",
    "state": "AL",
    "street_address": "3947 Holly Grove Rd"
  },
  {
    "longitude": -87.545134,
    "latitude": 34.843621,
    "name": "Turtle Point Yacht & Country Club",
    "city": "Killen",
    "state": "AL",
    "street_address": "1000 Country Club Dr"
  },
  {
    "longitude": -85.215039,
    "latitude": 32.87264,
    "name": "Riverside Country Club",
    "city": "Lanett",
    "state": "AL",
    "street_address": "2001 Cherry Drive"
  },
  {
    "longitude": -87.767996,
    "latitude": 32.294162,
    "name": "Linden Country Club",
    "city": "Linden",
    "state": "AL",
    "street_address": "Highway 28 East"
  },
  {
    "longitude": -88.201233,
    "latitude": 32.600854,
    "name": "Livingston Country Club",
    "city": "Livingston",
    "state": "AL",
    "street_address": "Country Club Road"
  },
  {
    "longitude": -87.722198,
    "latitude": 30.698332,
    "name": "Steelwood Country Club",
    "city": "Loxley",
    "state": "AL",
    "street_address": "31925 Steelwood Ridge Rd"
  },
  {
    "longitude": -86.267266,
    "latitude": 31.702645,
    "name": "Crenshaw County Rec Club",
    "city": "Luverne",
    "state": "AL",
    "street_address": "265 Mount Ida Highway"
  },
  {
    "longitude": -87.318588,
    "latitude": 32.624491,
    "name": "Marion Military Institute Golf Course",
    "city": "Marion",
    "state": "AL",
    "street_address": "1101 Washington St"
  },
  {
    "longitude": -86.360922,
    "latitude": 32.390946,
    "name": "Cypress Tree Golf Courses",
    "city": "Montgomery",
    "state": "AL",
    "street_address": "1461 March Street"
  },
  {
    "longitude": -87.144449,
    "latitude": 33.281056,
    "name": "Lakeview Country Club",
    "city": "McCalla",
    "state": "AL",
    "street_address": "21026 Agnes Dr"
  },
  {
    "longitude": -85.603204,
    "latitude": 34.537302,
    "name": "Cloudmont Ski & Golf Resort",
    "city": "Mentone",
    "state": "AL",
    "street_address": "721 County Road 614"
  },
  {
    "longitude": -86.597048,
    "latitude": 34.873146,
    "name": "Colonial Golf Course",
    "city": "Meridianville",
    "state": "AL",
    "street_address": "400 Colonial Dr"
  },
  {
    "longitude": -86.537211,
    "latitude": 34.87911,
    "name": "Fox Run Golf Course",
    "city": "Meridianville",
    "state": "AL",
    "street_address": "870 McCollum Rd"
  },
  {
    "longitude": -86.375389,
    "latitude": 32.521738,
    "name": "The Pines Golf Club",
    "city": "Millbrook",
    "state": "AL",
    "street_address": "307 Deatsville Hwy"
  },
  {
    "longitude": -88.162398,
    "latitude": 30.710567,
    "name": "Azalea City Golf Course",
    "city": "Mobile",
    "state": "AL",
    "street_address": "1000 Gaillard Dr"
  },
  {
    "longitude": -88.061674,
    "latitude": 30.640932,
    "name": "Gulf Pines Golf Club",
    "city": "Mobile",
    "state": "AL",
    "street_address": "167 Old Bay Front Dr"
  },
  {
    "longitude": -88.21261,
    "latitude": 30.737516,
    "name": "Magnolia Grove Golf Club",
    "city": "Mobile",
    "state": "AL",
    "street_address": "7001 Magnolia Grove Pkwy"
  },
  {
    "longitude": -88.15335,
    "latitude": 30.68628,
    "name": "Country Club of Mobile",
    "city": "Mobile",
    "state": "AL",
    "street_address": "4101 Wimbledon Dr W"
  },
  {
    "longitude": -88.133828,
    "latitude": 30.642802,
    "name": "Heron Lakes Country Club",
    "city": "Mobile",
    "state": "AL",
    "street_address": "3851 Government Blvd"
  },
  {
    "longitude": -88.146485,
    "latitude": 30.685821,
    "name": "Spring Hill College Golf Course",
    "city": "Mobile",
    "state": "AL",
    "street_address": "4000 Dauphin St"
  },
  {
    "longitude": -87.340089,
    "latitude": 31.519735,
    "name": "Vanity Fair Golf & Tennis Club",
    "city": "Monroeville",
    "state": "AL",
    "street_address": "613 Golf Dr"
  },
  {
    "longitude": -86.873531,
    "latitude": 33.102673,
    "name": "Montevallo Golf Club",
    "city": "Montevallo",
    "state": "AL",
    "street_address": "1481 Shelby County Highway 204"
  },
  {
    "longitude": -86.326554,
    "latitude": 32.335042,
    "name": "Gateway Park Executive Golf Course",
    "city": "Montgomery",
    "state": "AL",
    "street_address": "3800 Davenport Pkwy"
  },
  {
    "longitude": -86.221294,
    "latitude": 32.400294,
    "name": "Lagoon Park Golf Course",
    "city": "Montgomery",
    "state": "AL",
    "street_address": "2855 Lagoon Park Dr"
  },
  {
    "longitude": -86.144678,
    "latitude": 32.378926,
    "name": "Arrowhead Golf & Country Club",
    "city": "Montgomery",
    "state": "AL",
    "street_address": "50 Ocala Dr"
  },
  {
    "longitude": -86.272271,
    "latitude": 32.398724,
    "name": "Bonnie Crest Country Club",
    "city": "Montgomery",
    "state": "AL",
    "street_address": "1410 Federal Dr"
  },
  {
    "longitude": -86.282368,
    "latitude": 32.351498,
    "name": "Montgomery Country Club",
    "city": "Montgomery",
    "state": "AL",
    "street_address": "3001 Narrow Lane Rd"
  },
  {
    "longitude": -86.149479,
    "latitude": 32.349475,
    "name": "Wynlakes Golf & Country Club",
    "city": "Montgomery",
    "state": "AL",
    "street_address": "7900 Wynlakes Blvd"
  },
  {
    "longitude": -86.174376,
    "latitude": 32.247291,
    "name": "Cottonwood Golf Club",
    "city": "Montgomery",
    "state": "AL",
    "street_address": "7160 Byron Nelson Blvd"
  },
  {
    "longitude": -86.270866,
    "latitude": 32.318126,
    "name": "Magnolia Golf Club",
    "city": "Montgomery",
    "state": "AL",
    "street_address": "3346 Elsberry Rd"
  },
  {
    "longitude": -86.135717,
    "latitude": 32.419455,
    "name": "Tallapoosa Lakes Golf Course",
    "city": "Montgomery",
    "state": "AL",
    "street_address": "1501 Dozier Rd"
  },
  {
    "longitude": -86.792639,
    "latitude": 33.75806,
    "name": "Green Briar Golf Course",
    "city": "Morris",
    "state": "AL",
    "street_address": "1130 Morris Majestic Rd"
  },
  {
    "longitude": -87.311735,
    "latitude": 34.433911,
    "name": "Deer Run Golf Course",
    "city": "Moulton",
    "state": "AL",
    "street_address": "1175 County Road 100"
  },
  {
    "longitude": -87.659718,
    "latitude": 34.730226,
    "name": "Cypress Lakes Golf & Country Club",
    "city": "Muscle Shoals",
    "state": "AL",
    "street_address": "1311 E 6th St"
  },
  {
    "longitude": -87.535206,
    "latitude": 34.817814,
    "name": "The Shoals Golf Club",
    "city": "Muscle Shoals",
    "state": "AL",
    "street_address": "990 Sunbelt Pkwy"
  },
  {
    "longitude": -87.638899,
    "latitude": 33.293178,
    "name": "Hidden Meadows Golf Course",
    "city": "Northport",
    "state": "AL",
    "street_address": "13000 Old Cove Rd"
  },
  {
    "longitude": -86.46493,
    "latitude": 33.973678,
    "name": "Heritage Golf Course",
    "city": "Oneonta",
    "state": "AL",
    "street_address": "671 Heritage Rd"
  },
  {
    "longitude": -86.56757,
    "latitude": 33.895796,
    "name": "Limestone Springs Golf Club",
    "city": "Oneonta",
    "state": "AL",
    "street_address": "3000 Colonial Dr"
  },
  {
    "longitude": -86.407295,
    "latitude": 33.92928,
    "name": "Whispering Pines Golf Club",
    "city": "Oneonta",
    "state": "AL",
    "street_address": "765 Morton Rd"
  },
  {
    "longitude": -85.417515,
    "latitude": 32.600131,
    "name": "Saugahatchee Country Club",
    "city": "Opelika",
    "state": "AL",
    "street_address": "3800 Bent Creek Rd"
  },
  {
    "longitude": -85.426491,
    "latitude": 32.676058,
    "name": "Grand National Golf Course",
    "city": "Opelika",
    "state": "AL",
    "street_address": "3000 Sunbelt Pkwy"
  },
  {
    "longitude": -86.284816,
    "latitude": 31.279539,
    "name": "Opp Country Club",
    "city": "Opp",
    "state": "AL",
    "street_address": "Highway 84 West"
  },
  {
    "longitude": -87.60668,
    "latitude": 30.290876,
    "name": "Orange Beach Golf Center",
    "city": "Orange Beach",
    "state": "AL",
    "street_address": "4700 Easy St"
  },
  {
    "longitude": -86.471284,
    "latitude": 34.659987,
    "name": "The Robert Trent Jones Golf Trail@ Hampton Cove",
    "city": "Owens Cross Roads",
    "state": "AL",
    "street_address": "450 Old Highway 431"
  },
  {
    "longitude": -85.750792,
    "latitude": 33.594656,
    "name": "Cider Ridge Golf Club",
    "city": "Oxford",
    "state": "AL",
    "street_address": "200 Apple Blossom Way"
  },
  {
    "longitude": -85.614841,
    "latitude": 31.474832,
    "name": "Ozark Country Club",
    "city": "Ozark",
    "state": "AL",
    "street_address": "815 Country Club Dr"
  },
  {
    "longitude": -86.755997,
    "latitude": 33.260424,
    "name": "Ballantrae Golf Course",
    "city": "Pelham",
    "state": "AL",
    "street_address": "1300 Ballantrae Club Dr"
  },
  {
    "longitude": -86.760144,
    "latitude": 33.332374,
    "name": "Oak Mt State Park Golf Course",
    "city": "Pelham",
    "state": "AL",
    "street_address": "Oak Mt State Park"
  },
  {
    "longitude": -86.258419,
    "latitude": 33.559699,
    "name": "Pell City Country Club",
    "city": "Pell City",
    "state": "AL",
    "street_address": "2021 Golf Course Rd"
  },
  {
    "longitude": -86.272062,
    "latitude": 33.524899,
    "name": "Pine Harbor Golf & Racquet Club",
    "city": "Pell City",
    "state": "AL",
    "street_address": "1218 Pine Harbor Rd"
  },
  {
    "longitude": -85.020077,
    "latitude": 32.504099,
    "name": "Lakewood Golf Course",
    "city": "Phenix City",
    "state": "AL",
    "street_address": "2800 Lakewood Dr"
  },
  {
    "longitude": -86.670198,
    "latitude": 33.770023,
    "name": "Cumberland Lake Country Club",
    "city": "Pinson",
    "state": "AL",
    "street_address": "2150 Cumberland Lake Dr"
  },
  {
    "longitude": -87.918457,
    "latitude": 30.473009,
    "name": "Marriott Lakewood Golf Club",
    "city": "Point Clear",
    "state": "AL",
    "street_address": "1 Grand Blvd"
  },
  {
    "longitude": -86.490568,
    "latitude": 32.45151,
    "name": "Prattville Country Club",
    "city": "Prattville",
    "state": "AL",
    "street_address": "723 Highway 82 Bypass"
  },
  {
    "longitude": -86.402021,
    "latitude": 32.447063,
    "name": "Capitol Hill Golf Course",
    "city": "Prattville",
    "state": "AL",
    "street_address": "2600 Constitution Ave"
  },
  {
    "longitude": -86.065727,
    "latitude": 33.95149,
    "name": "Hidden Oaks Golf Club",
    "city": "Rainbow City",
    "state": "AL",
    "street_address": "469 Kinzie Ln"
  },
  {
    "longitude": -86.065718,
    "latitude": 33.951858,
    "name": "Hidden Oaks Par 3 Golf Course",
    "city": "Rainbow City",
    "state": "AL",
    "street_address": "463 Kinzie Ln"
  },
  {
    "longitude": -85.806916,
    "latitude": 34.475419,
    "name": "Rainsville Golf & Country Club",
    "city": "Rainsville",
    "state": "AL",
    "street_address": "390 Pine Hill Rd"
  },
  {
    "longitude": -88.147419,
    "latitude": 34.46454,
    "name": "Redmont Recreation Club Golf Course",
    "city": "Red Bay",
    "state": "AL",
    "street_address": "1400 Redmont Dr Nw"
  },
  {
    "longitude": -87.980425,
    "latitude": 33.374022,
    "name": "The Knolls Country Club",
    "city": "Reform",
    "state": "AL",
    "street_address": "Highway 30 East"
  },
  {
    "longitude": -85.382288,
    "latitude": 33.132333,
    "name": "Roanoke Country Club",
    "city": "Roanoke",
    "state": "AL",
    "street_address": "1172 Country Club Rd"
  },
  {
    "longitude": -87.319689,
    "latitude": 34.827766,
    "name": "Joe Wheeler State Park Golf Course",
    "city": "Rogersville",
    "state": "AL",
    "street_address": "201 McLean Dr"
  },
  {
    "longitude": -87.675625,
    "latitude": 34.571422,
    "name": "Twin Pines Golf Course",
    "city": "Russellville",
    "state": "AL",
    "street_address": "1855 Country Club Dr"
  },
  {
    "longitude": -86.079295,
    "latitude": 34.598099,
    "name": "Goose Pond Colony Golf Course",
    "city": "Scottsboro",
    "state": "AL",
    "street_address": "417 Ed Hembree Dr"
  },
  {
    "longitude": -86.130105,
    "latitude": 34.639542,
    "name": "Goose Pond Plantation Golf Course",
    "city": "Scottsboro",
    "state": "AL",
    "street_address": "67 Plantation Pointe Rd"
  },
  {
    "longitude": -86.041767,
    "latitude": 34.637641,
    "name": "Scottsboro Golf & Country Club",
    "city": "Scottsboro",
    "state": "AL",
    "street_address": "Highway #79 Bypass"
  },
  {
    "longitude": -86.069645,
    "latitude": 34.609413,
    "name": "Broken Arrow Golf Course",
    "city": "Scottsboro",
    "state": "AL",
    "street_address": "399 Broken Arrow Dr"
  },
  {
    "longitude": -87.044127,
    "latitude": 32.40602,
    "name": "Selma Country Club",
    "city": "Selma",
    "state": "AL",
    "street_address": "103 W Dallas Ave"
  },
  {
    "longitude": -86.986899,
    "latitude": 32.36128,
    "name": "Craig Golf Course",
    "city": "Selma",
    "state": "AL",
    "street_address": "262 Craig Industrial Park"
  },
  {
    "longitude": -87.692605,
    "latitude": 34.75973,
    "name": "Occidental Chemical Co. Golf Course",
    "city": "Sheffield",
    "state": "AL",
    "street_address": "1000 N Wilson Dam Hwy"
  },
  {
    "longitude": -86.615399,
    "latitude": 33.43884,
    "name": "Shoal Creek",
    "city": "Shoal Creek",
    "state": "AL",
    "street_address": "100 New Williamsburg Dr"
  },
  {
    "longitude": -87.85673,
    "latitude": 30.670241,
    "name": "TimberCreek Golf Club",
    "city": "Spanish Fort",
    "state": "AL",
    "street_address": "9650 Timbercreek Blvd"
  },
  {
    "longitude": -88.119665,
    "latitude": 33.837625,
    "name": "Oak Hill Country Club",
    "city": "Sulligent",
    "state": "AL",
    "street_address": "101 Country Club Rd"
  },
  {
    "longitude": -86.241561,
    "latitude": 33.216314,
    "name": "Sylacauga Country Club",
    "city": "Sylacauga",
    "state": "AL",
    "street_address": "1 Fairway Dr"
  },
  {
    "longitude": -86.419684,
    "latitude": 33.11773,
    "name": "FarmLinks Golf Club",
    "city": "Sylacauga",
    "state": "AL",
    "street_address": "2200 FarmLinks Blvd"
  },
  {
    "longitude": -86.107165,
    "latitude": 33.446152,
    "name": "Talladega Municipal Golf Course",
    "city": "Talladega",
    "state": "AL",
    "street_address": "65230 Hwy 77 North"
  },
  {
    "longitude": -86.071216,
    "latitude": 33.435546,
    "name": "Timber Ridge Golf Club",
    "city": "Talladega",
    "state": "AL",
    "street_address": "101 Ironaton Road"
  },
  {
    "longitude": -85.947715,
    "latitude": 32.609354,
    "name": "Lakeside Country Club",
    "city": "Tallassee",
    "state": "AL",
    "street_address": "5881 Cherokee Trl"
  },
  {
    "longitude": -88.23757,
    "latitude": 30.580861,
    "name": "Meadowlake Golf Course",
    "city": "Theodore",
    "state": "AL",
    "street_address": "8350 Theodore Dawes Rd W"
  },
  {
    "longitude": -87.762552,
    "latitude": 31.907746,
    "name": "Pineview Country Club",
    "city": "Thomasville",
    "state": "AL",
    "street_address": "1250 Country Club Dr"
  },
  {
    "longitude": -85.965345,
    "latitude": 31.778483,
    "name": "Troy Country Club",
    "city": "Troy",
    "state": "AL",
    "street_address": "1 Club Rd"
  },
  {
    "longitude": -85.955571,
    "latitude": 31.802189,
    "name": "Trojan Oaks Golf Course",
    "city": "Troy",
    "state": "AL",
    "street_address": "Troy St Univ  Adams Center 215"
  },
  {
    "longitude": -86.55624,
    "latitude": 33.603457,
    "name": "Trussville Country Club",
    "city": "Trussville",
    "state": "AL",
    "street_address": "7905 Roper Rd"
  },
  {
    "longitude": -87.534657,
    "latitude": 33.260213,
    "name": "Ol' Colony Golf Complex",
    "city": "Tuscaloosa",
    "state": "AL",
    "street_address": "401 Old Colony Rd"
  },
  {
    "longitude": -87.46721,
    "latitude": 33.155495,
    "name": "Woodland Forrest Country Club",
    "city": "Tuscaloosa",
    "state": "AL",
    "street_address": "5604 Woodland Forrest Dr"
  },
  {
    "longitude": -87.584279,
    "latitude": 33.205993,
    "name": "Country Club of Tuscaloosa",
    "city": "Tuscaloosa",
    "state": "AL",
    "street_address": "3700 6th St"
  },
  {
    "longitude": -87.541789,
    "latitude": 33.23371,
    "name": "Indian Hills Country Club",
    "city": "Tuscaloosa",
    "state": "AL",
    "street_address": "1650 Highway 82"
  },
  {
    "longitude": -87.498139,
    "latitude": 33.294354,
    "name": "NorthRiver Yacht Club",
    "city": "Tuscaloosa",
    "state": "AL",
    "street_address": "3100 Yacht Club Way NE"
  },
  {
    "longitude": -87.560594,
    "latitude": 33.155844,
    "name": "The Links At Tuscaloosa",
    "city": "Tuscaloosa",
    "state": "AL",
    "street_address": "1800 Links Blvd"
  },
  {
    "longitude": -87.695097,
    "latitude": 34.715528,
    "name": "Spring Creek Golf Course",
    "city": "Tuscumbia",
    "state": "AL",
    "street_address": "800 Woodmont Dr"
  },
  {
    "longitude": -87.704489,
    "latitude": 34.718458,
    "name": "Tennessee Valley Country Club",
    "city": "Tuscumbia",
    "state": "AL",
    "street_address": "101 Maple St"
  },
  {
    "longitude": -86.568835,
    "latitude": 34.419236,
    "name": "Cherokee Ridge Country Club",
    "city": "Union Grove",
    "state": "AL",
    "street_address": "4000 Cherokee Ridge Dr"
  },
  {
    "longitude": -85.72653,
    "latitude": 32.152813,
    "name": "Union Springs Country Club",
    "city": "Union Springs",
    "state": "AL",
    "street_address": "Country Club Drive"
  },
  {
    "longitude": -87.115341,
    "latitude": 32.486742,
    "name": "Valley Grande Golf Club",
    "city": "Valley Grande",
    "state": "AL",
    "street_address": "1009 Warrior Dr"
  },
  {
    "longitude": -85.202628,
    "latitude": 32.702326,
    "name": "Rolling Hills Golf Course",
    "city": "Valley",
    "state": "AL",
    "street_address": "9565 Lee Rd 279"
  },
  {
    "longitude": -86.681762,
    "latitude": 33.491622,
    "name": "Old Overton Club",
    "city": "Vestavia Hills",
    "state": "AL",
    "street_address": "7251 Old Overton Club Dr"
  },
  {
    "longitude": -86.105816,
    "latitude": 32.448205,
    "name": "Emerald Mountain Golf Club",
    "city": "Wetumpka",
    "state": "AL",
    "street_address": "245 Mountain View Rd"
  },
  {
    "longitude": -86.227318,
    "latitude": 32.563393,
    "name": "Quail Walk Country Club",
    "city": "Wetumpka",
    "state": "AL",
    "street_address": "2110 Holtville Rd"
  },
  {
    "longitude": -88.313146,
    "latitude": 32.510017,
    "name": "Sumter Country Club",
    "city": "York",
    "state": "AL",
    "street_address": "51880 Country Club Rd"
  },
  {
    "longitude": -94.16868,
    "latitude": 35.500064,
    "name": "Eagle Crest Golf Course",
    "city": "Alma",
    "state": "AR",
    "street_address": "3926 Golf Course Dr"
  },
  {
    "longitude": -94.15348,
    "latitude": 35.493705,
    "name": "River Valley Golf Course",
    "city": "Alma",
    "state": "AR",
    "street_address": "5829 Highway 64 E"
  },
  {
    "longitude": -93.09088,
    "latitude": 34.14483,
    "name": "Turtle Pointe Golf Club",
    "city": "Arkadelphia",
    "state": "AR",
    "street_address": "182 Club Dr"
  },
  {
    "longitude": -94.01366,
    "latitude": 33.712909,
    "name": "Millwood Landing Golf & R V  Resort",
    "city": "Ashdown",
    "state": "AR",
    "street_address": "596 Highway 317"
  },
  {
    "longitude": -94.131614,
    "latitude": 33.692565,
    "name": "Southern Fairways LLC",
    "city": "Ashdown",
    "state": "AR",
    "street_address": "2104 Buck Wright Road"
  },
  {
    "longitude": -91.274188,
    "latitude": 35.284923,
    "name": "Cypress Creek Country Club",
    "city": "Augusta",
    "state": "AR",
    "street_address": "8302 Highway #64 East"
  },
  {
    "longitude": -91.591594,
    "latitude": 35.313464,
    "name": "Bald Knob Country Club",
    "city": "Bald Knob",
    "state": "AR",
    "street_address": "216 Country Club Road"
  },
  {
    "longitude": -94.303348,
    "latitude": 35.296597,
    "name": "Deer Trails Golf Course",
    "city": "Barling",
    "state": "AR",
    "street_address": "Bldg #3910 Arkansas Boulevard"
  },
  {
    "longitude": -91.636614,
    "latitude": 35.758832,
    "name": "Batesville Municipal Golf Course",
    "city": "Batesville",
    "state": "AR",
    "street_address": "1850 Chaney Dr"
  },
  {
    "longitude": -91.62625,
    "latitude": 35.768137,
    "name": "Batesville Country Club",
    "city": "Batesville",
    "state": "AR",
    "street_address": "1100 24th St"
  },
  {
    "longitude": -91.583536,
    "latitude": 35.748918,
    "name": "The Course At Eagle Mountain",
    "city": "Batesville",
    "state": "AR",
    "street_address": "800 Gap Rd"
  },
  {
    "longitude": -94.193794,
    "latitude": 36.456498,
    "name": "Bella Vista Country Club",
    "city": "Bella Vista",
    "state": "AR",
    "street_address": "101 Town Ctr NE"
  },
  {
    "longitude": -92.551093,
    "latitude": 34.60085,
    "name": "Longhills Golf Club",
    "city": "Benton",
    "state": "AR",
    "street_address": "327 Highway 5 N"
  },
  {
    "longitude": -92.653712,
    "latitude": 34.530638,
    "name": "Silver Springs Country Club",
    "city": "Benton",
    "state": "AR",
    "street_address": "6301 Trace Creek Rd"
  },
  {
    "longitude": -94.184783,
    "latitude": 36.349281,
    "name": "Links At Bentonville Golf & Athletic Club",
    "city": "Bentonville",
    "state": "AR",
    "street_address": "2101 SE Hilton Head Dr"
  },
  {
    "longitude": -93.595458,
    "latitude": 36.381646,
    "name": "Carroll County Golf Course",
    "city": "Berryville",
    "state": "AR",
    "street_address": "Highway 62 West"
  },
  {
    "longitude": -93.163421,
    "latitude": 34.255162,
    "name": "De Gray State Park Golf Course",
    "city": "Bismarck",
    "state": "AR",
    "street_address": "2027 State Park Maintenance Rd"
  },
  {
    "longitude": -93.159963,
    "latitude": 34.280331,
    "name": "Caddo Creek Golf Course",
    "city": "Bismarck",
    "state": "AR",
    "street_address": "4009 Highway 7"
  },
  {
    "longitude": -89.920237,
    "latitude": 35.950081,
    "name": "Thunder Bayou Golf Links",
    "city": "Blytheville",
    "state": "AR",
    "street_address": "1229 Perimeter Rd"
  },
  {
    "longitude": -89.911007,
    "latitude": 35.950614,
    "name": "Blytheville Country Club",
    "city": "Blytheville",
    "state": "AR",
    "street_address": "Highway 61 North"
  },
  {
    "longitude": -93.894188,
    "latitude": 35.14363,
    "name": "Cherokee Creek Golf Club",
    "city": "Booneville",
    "state": "AR",
    "street_address": "Highway 10 East"
  },
  {
    "longitude": -91.228206,
    "latitude": 34.856172,
    "name": "Brinkley Country Club",
    "city": "Brinkley",
    "state": "AR",
    "street_address": "Highway 70 West"
  },
  {
    "longitude": -92.521604,
    "latitude": 34.605737,
    "name": "Hurricane Golf and Country Club",
    "city": "Bryant",
    "state": "AR",
    "street_address": "4300 Hurricane Dr"
  },
  {
    "longitude": -92.585217,
    "latitude": 36.364377,
    "name": "Rivercliff Golf Club",
    "city": "Bull Shoals",
    "state": "AR",
    "street_address": "110 Club House Lane"
  },
  {
    "longitude": -91.979856,
    "latitude": 34.935244,
    "name": "Rolling Hills Country Club Inc",
    "city": "Cabot",
    "state": "AR",
    "street_address": "271 Country Club Rd"
  },
  {
    "longitude": -92.063556,
    "latitude": 35.022134,
    "name": "Greystone Country Club",
    "city": "Cabot",
    "state": "AR",
    "street_address": "57 Greystone Blvd"
  },
  {
    "longitude": -92.861865,
    "latitude": 33.585389,
    "name": "Camden Country Club",
    "city": "Camden",
    "state": "AR",
    "street_address": "1915 W Washington St"
  },
  {
    "longitude": -92.735186,
    "latitude": 33.615139,
    "name": "Highland Golf Course",
    "city": "Camden",
    "state": "AR",
    "street_address": "707 Highway 274"
  },
  {
    "longitude": -94.236941,
    "latitude": 36.246757,
    "name": "The Creeks Golf Course LLC",
    "city": "Cave Springs",
    "state": "AR",
    "street_address": "1499 S Main St"
  },
  {
    "longitude": -91.551334,
    "latitude": 36.317763,
    "name": "Cherokee Village North Course",
    "city": "Cherokee Village",
    "state": "AR",
    "street_address": "75 Pro Shop Rd"
  },
  {
    "longitude": -91.595674,
    "latitude": 36.288613,
    "name": "Cherokee Village South Course",
    "city": "Cherokee Village",
    "state": "AR",
    "street_address": "#5 Laguna Drive"
  },
  {
    "longitude": -91.154559,
    "latitude": 34.69131,
    "name": "Pines Golf Club",
    "city": "Clarendon",
    "state": "AR",
    "street_address": "18340 Hwy 79"
  },
  {
    "longitude": -93.487037,
    "latitude": 35.450776,
    "name": "Clarksville Country Club",
    "city": "Clarksville",
    "state": "AR",
    "street_address": "401 W Country Club Dr"
  },
  {
    "longitude": -92.445717,
    "latitude": 35.584084,
    "name": "Red River Golf Club Inc",
    "city": "Clinton",
    "state": "AR",
    "street_address": "360 Factory Rd"
  },
  {
    "longitude": -92.501924,
    "latitude": 35.101208,
    "name": "Centennial Valley Golf Course",
    "city": "Conway",
    "state": "AR",
    "street_address": "1600 Centennial Club Dr"
  },
  {
    "longitude": -92.480488,
    "latitude": 35.086774,
    "name": "Conway Country Club",
    "city": "Conway",
    "state": "AR",
    "street_address": "555 Country Club Rd"
  },
  {
    "longitude": -92.483753,
    "latitude": 35.107429,
    "name": "Cadron Valley Country Club",
    "city": "Conway",
    "state": "AR",
    "street_address": "3400 Irby Dr"
  },
  {
    "longitude": -92.473809,
    "latitude": 35.049963,
    "name": "The Greens At Nutters Chapel",
    "city": "Conway",
    "state": "AR",
    "street_address": "1705 S Salem Rd"
  },
  {
    "longitude": -90.571705,
    "latitude": 36.40584,
    "name": "Victory Lake Golf Course",
    "city": "Corning",
    "state": "AR",
    "street_address": "536 E Elm St"
  },
  {
    "longitude": -91.896602,
    "latitude": 33.175525,
    "name": "Prairie Country Club",
    "city": "Crossett",
    "state": "AR",
    "street_address": "Highway #52 North"
  },
  {
    "longitude": -93.371005,
    "latitude": 35.105832,
    "name": "Chamberlyne Country Club",
    "city": "Danville",
    "state": "AR",
    "street_address": "10614 Country Club Dr"
  },
  {
    "longitude": -93.215378,
    "latitude": 35.25786,
    "name": "Lions Den Golf Club",
    "city": "Dardanelle",
    "state": "AR",
    "street_address": "11044 Bay Ridge Dr"
  },
  {
    "longitude": -94.278822,
    "latitude": 34.046782,
    "name": "De Queen Country Club and Lodge",
    "city": "De Queen",
    "state": "AR",
    "street_address": "Route 70 East"
  },
  {
    "longitude": -91.385147,
    "latitude": 34.305869,
    "name": "Oak Hills Country Club",
    "city": "De Witt",
    "state": "AR",
    "street_address": "RR 1"
  },
  {
    "longitude": -92.922129,
    "latitude": 36.46558,
    "name": "Diamond Hills Country Club",
    "city": "Diamond City",
    "state": "AR",
    "street_address": "20701 Highway 7 North"
  },
  {
    "longitude": -92.056779,
    "latitude": 35.559388,
    "name": "Tannenbaum Golf Club",
    "city": "Drasco",
    "state": "AR",
    "street_address": "5 Kustrin Dr"
  },
  {
    "longitude": -92.647674,
    "latitude": 33.236988,
    "name": "Lions Club Municipal Golf Course",
    "city": "El Dorado",
    "state": "AR",
    "street_address": "East 19th & Martin Luther King Blvd"
  },
  {
    "longitude": -92.661157,
    "latitude": 33.238957,
    "name": "El Dorado Golf & Country Club",
    "city": "El Dorado",
    "state": "AR",
    "street_address": "101 Shady Side St"
  },
  {
    "longitude": -92.731619,
    "latitude": 33.227591,
    "name": "The Resurrection Course at Mystic Creek",
    "city": "El Dorado",
    "state": "AR",
    "street_address": "1000 N Wyatt"
  },
  {
    "longitude": -92.011471,
    "latitude": 34.542492,
    "name": "England Country Club",
    "city": "England",
    "state": "AR",
    "street_address": "Highway 161"
  },
  {
    "longitude": -92.249026,
    "latitude": 35.619657,
    "name": "Indian Hills Country Club",
    "city": "Fairfield Bay",
    "state": "AR",
    "street_address": "Snead Drive"
  },
  {
    "longitude": -92.288285,
    "latitude": 35.610854,
    "name": "Mountain Ranch Golf Club",
    "city": "Fairfield Bay",
    "state": "AR",
    "street_address": "820 Lost Creek Pkwy"
  },
  {
    "longitude": -94.262382,
    "latitude": 36.012815,
    "name": "Golf Club At Valley View",
    "city": "Farmington",
    "state": "AR",
    "street_address": "11520 Club House Pkwy"
  },
  {
    "longitude": -94.157179,
    "latitude": 36.029947,
    "name": "Fayetteville Country Club",
    "city": "Fayetteville",
    "state": "AR",
    "street_address": "3335 S Country Club Dr"
  },
  {
    "longitude": -94.130007,
    "latitude": 36.118802,
    "name": "Paradise Valley Athletic Club",
    "city": "Fayetteville",
    "state": "AR",
    "street_address": "3728 N Old Missouri Rd"
  },
  {
    "longitude": -94.201823,
    "latitude": 36.13177,
    "name": "Blessings Golf Club",
    "city": "Fayetteville",
    "state": "AR",
    "street_address": "5826 Clear Creek Blvd"
  },
  {
    "longitude": -94.159746,
    "latitude": 36.09962,
    "name": "Lakeside Par 3",
    "city": "Fayetteville",
    "state": "AR",
    "street_address": "200 W Village Lake Dr"
  },
  {
    "longitude": -94.19474,
    "latitude": 36.097964,
    "name": "Razorback Park Golf Course",
    "city": "Fayetteville",
    "state": "AR",
    "street_address": "2514 W Lori Dr"
  },
  {
    "longitude": -94.112647,
    "latitude": 36.045276,
    "name": "Stonebridge Meadows Golf Club",
    "city": "Fayetteville",
    "state": "AR",
    "street_address": "3495 E Goff Farm Rd"
  },
  {
    "longitude": -94.211993,
    "latitude": 36.079466,
    "name": "The Links At Fayetteville",
    "city": "Fayetteville",
    "state": "AR",
    "street_address": "2300 W Player Ln"
  },
  {
    "longitude": -92.469942,
    "latitude": 33.813018,
    "name": "Fordyce Country Club",
    "city": "Fordyce",
    "state": "AR",
    "street_address": "Country Club Road"
  },
  {
    "longitude": -90.780207,
    "latitude": 35.008165,
    "name": "Forrest City Country Club",
    "city": "Forrest City",
    "state": "AR",
    "street_address": "922 E Cross St"
  },
  {
    "longitude": -90.767642,
    "latitude": 35.060809,
    "name": "Ridgecrest Country Club",
    "city": "Forrest City",
    "state": "AR",
    "street_address": "Barrow Hill Road"
  },
  {
    "longitude": -94.354514,
    "latitude": 35.326029,
    "name": "Ben Geren Regional Park Golf Course",
    "city": "Fort Smith",
    "state": "AR",
    "street_address": "7200 Zero St"
  },
  {
    "longitude": -94.413055,
    "latitude": 35.293613,
    "name": "Fianna Hills Country Club",
    "city": "Fort Smith",
    "state": "AR",
    "street_address": "1 Essex Pl"
  },
  {
    "longitude": -94.384052,
    "latitude": 35.349195,
    "name": "Hardscrabble Country Club",
    "city": "Fort Smith",
    "state": "AR",
    "street_address": "5211 Cliff Dr"
  },
  {
    "longitude": -94.370373,
    "latitude": 35.425037,
    "name": "Fort Smith Country Club",
    "city": "Fort Smith",
    "state": "AR",
    "street_address": "5500 Midland Blvd"
  },
  {
    "longitude": -94.370224,
    "latitude": 35.318144,
    "name": "The First Tee of Fort Smith  The Jack Stephens Yo",
    "city": "Fort Smith",
    "state": "AR",
    "street_address": "5800 Geren Rd"
  },
  {
    "longitude": -94.37663,
    "latitude": 35.326946,
    "name": "The Links of Fort Smith",
    "city": "Fort Smith",
    "state": "AR",
    "street_address": "5100 S Zero St"
  },
  {
    "longitude": -93.505799,
    "latitude": 34.338358,
    "name": "Glenwood Country Club",
    "city": "Glenwood",
    "state": "AR",
    "street_address": "584 Highway 70 E"
  },
  {
    "longitude": -92.31987,
    "latitude": 35.279956,
    "name": "Persimmon Ridge Golf Club",
    "city": "Greenbrier",
    "state": "AR",
    "street_address": "1 Fairway Dr"
  },
  {
    "longitude": -94.226664,
    "latitude": 35.200598,
    "name": "Vache Grasse Country Club",
    "city": "Greenwood",
    "state": "AR",
    "street_address": "891 Country Club Road"
  },
  {
    "longitude": -93.142201,
    "latitude": 33.872164,
    "name": "Red Martin Country Club",
    "city": "Gurdon",
    "state": "AR",
    "street_address": "1661 Highway 53 S"
  },
  {
    "longitude": -93.127951,
    "latitude": 36.263359,
    "name": "Harrison Country Club",
    "city": "Harrison",
    "state": "AR",
    "street_address": "Highway 62-65 North"
  },
  {
    "longitude": -93.137437,
    "latitude": 36.253133,
    "name": "The Links At Harrison",
    "city": "Harrison",
    "state": "AR",
    "street_address": "1919 Club Cir"
  },
  {
    "longitude": -91.575256,
    "latitude": 34.822943,
    "name": "Grand Prairie Country Club",
    "city": "Hazen",
    "state": "AR",
    "street_address": "682 Country Club Rd"
  },
  {
    "longitude": -92.106171,
    "latitude": 35.496522,
    "name": "Red Apple Inn & Country Club",
    "city": "Heber Springs",
    "state": "AR",
    "street_address": "325 Club Dr"
  },
  {
    "longitude": -91.966041,
    "latitude": 35.504502,
    "name": "Lost Creek Golf Club",
    "city": "Heber Springs",
    "state": "AR",
    "street_address": "1104 Industrial Park Rd"
  },
  {
    "longitude": -91.961962,
    "latitude": 35.486465,
    "name": "Riverland Country Club",
    "city": "Heber Springs",
    "state": "AR",
    "street_address": "175 Riverland Dr"
  },
  {
    "longitude": -92.039816,
    "latitude": 35.523462,
    "name": "Thunderbird Country Club",
    "city": "Heber Springs",
    "state": "AR",
    "street_address": "2909 Case Ford Rd"
  },
  {
    "longitude": -93.72561,
    "latitude": 36.461261,
    "name": "Holiday Island Golf Course",
    "city": "Holiday Island",
    "state": "AR",
    "street_address": "1 Country Club Dr"
  },
  {
    "longitude": -93.579263,
    "latitude": 33.631352,
    "name": "Hope Country Club",
    "city": "Hope",
    "state": "AR",
    "street_address": "3605 Patmos Rd"
  },
  {
    "longitude": -91.759992,
    "latitude": 36.218556,
    "name": "Cedar Glade Golf Club",
    "city": "Horseshoe Bend",
    "state": "AR",
    "street_address": "900 4th Street"
  },
  {
    "longitude": -91.764348,
    "latitude": 36.229235,
    "name": "The Course At Turkey Mountain",
    "city": "Horseshoe Bend",
    "state": "AR",
    "street_address": "3 Club Rd"
  },
  {
    "longitude": -93.009484,
    "latitude": 34.546205,
    "name": "Belvedere Country Club",
    "city": "Hot Springs National Park",
    "state": "AR",
    "street_address": "385 Belvedere Dr"
  },
  {
    "longitude": -92.938687,
    "latitude": 34.634737,
    "name": "Balboa Golf Course",
    "city": "Hot Springs Village",
    "state": "AR",
    "street_address": "111 Balboa Way"
  },
  {
    "longitude": -92.946674,
    "latitude": 34.643742,
    "name": "Coronado Golf Course",
    "city": "Hot Springs Village",
    "state": "AR",
    "street_address": "199 Surtidor Way"
  },
  {
    "longitude": -92.985694,
    "latitude": 34.699148,
    "name": "Cortez Golf Course",
    "city": "Hot Springs Village",
    "state": "AR",
    "street_address": "299 Cortez Rd"
  },
  {
    "longitude": -93.042658,
    "latitude": 34.667498,
    "name": "DeSoto Golf Course",
    "city": "Hot Springs Village",
    "state": "AR",
    "street_address": "102 Clubhouse Dr"
  },
  {
    "longitude": -92.86302,
    "latitude": 34.649326,
    "name": "Granada Golf Course",
    "city": "Hot Springs Village",
    "state": "AR",
    "street_address": "250 Maderas Dr"
  },
  {
    "longitude": -92.86296,
    "latitude": 34.635184,
    "name": "Isabella Golf Course",
    "city": "Hot Springs Village",
    "state": "AR",
    "street_address": "110 Iniciador Way"
  },
  {
    "longitude": -92.89353,
    "latitude": 34.626501,
    "name": "Magellan Golf Course",
    "city": "Hot Springs Village",
    "state": "AR",
    "street_address": "451 Ponce de Leon Dr"
  },
  {
    "longitude": -92.893593,
    "latitude": 34.650653,
    "name": "Ponce De Leon Golf Course",
    "city": "Hot Springs Village",
    "state": "AR",
    "street_address": "300 Ponce de Leon Dr"
  },
  {
    "longitude": -92.863411,
    "latitude": 34.641651,
    "name": "Diamante Golf & Country Club",
    "city": "Hot Springs Village",
    "state": "AR",
    "street_address": "2000 Country Club Dr"
  },
  {
    "longitude": -92.949232,
    "latitude": 34.437534,
    "name": "Diamondhead Golf & Country Club",
    "city": "Hot Springs",
    "state": "AR",
    "street_address": "245 Independence Dr"
  },
  {
    "longitude": -93.030801,
    "latitude": 34.480592,
    "name": "Hot Springs Country Club",
    "city": "Hot Springs",
    "state": "AR",
    "street_address": "101 Country Club Dr"
  },
  {
    "longitude": -92.979683,
    "latitude": 34.456312,
    "name": "Lakeside Golf Club",
    "city": "Hot Springs",
    "state": "AR",
    "street_address": "418 Wilsons Lake Rd"
  },
  {
    "longitude": -92.983786,
    "latitude": 34.470837,
    "name": "Lakeview Golf Club",
    "city": "Hot Springs",
    "state": "AR",
    "street_address": "121 Essex Park Ter"
  },
  {
    "longitude": -93.013932,
    "latitude": 34.513328,
    "name": "Magic Hills Public Golf Course",
    "city": "Hot Springs",
    "state": "AR",
    "street_address": "1873 E Grand Ave"
  },
  {
    "longitude": -92.669502,
    "latitude": 35.070607,
    "name": "Bunker Hill Golf Course",
    "city": "Houston",
    "state": "AR",
    "street_address": "8 Bunker Hill Dr"
  },
  {
    "longitude": -93.765053,
    "latitude": 36.084287,
    "name": "Oakridge Golf Course",
    "city": "Huntsville",
    "state": "AR",
    "street_address": "Highway 74 West"
  },
  {
    "longitude": -92.083817,
    "latitude": 34.89208,
    "name": "Foxwood Golf Club",
    "city": "Jacksonville",
    "state": "AR",
    "street_address": "701 Foxwood Dr"
  },
  {
    "longitude": -92.167757,
    "latitude": 34.948717,
    "name": "Hickory Creek Golf Course",
    "city": "Jacksonville",
    "state": "AR",
    "street_address": "8933 Arrington Rd"
  },
  {
    "longitude": -90.692519,
    "latitude": 35.82864,
    "name": "Jonesboro Country Club",
    "city": "Jonesboro",
    "state": "AR",
    "street_address": "1408 E Nettleton Ave"
  },
  {
    "longitude": -90.77086,
    "latitude": 35.813537,
    "name": "RidgePointe Country Club",
    "city": "Jonesboro",
    "state": "AR",
    "street_address": "2510 Ridgepointe Dr"
  },
  {
    "longitude": -90.681585,
    "latitude": 35.792648,
    "name": "Links At Jonesboro",
    "city": "Jonesboro",
    "state": "AR",
    "street_address": "1424 Links Cir"
  },
  {
    "longitude": -90.636611,
    "latitude": 35.887027,
    "name": "Sage Meadows Golf Course",
    "city": "Jonesboro",
    "state": "AR",
    "street_address": "4406 Clubhouse Dr"
  },
  {
    "longitude": -91.263602,
    "latitude": 33.36141,
    "name": "Lake Village Country Club",
    "city": "Lake Village",
    "state": "AR",
    "street_address": "3309 Lakeshore Dr N"
  },
  {
    "longitude": -90.66307,
    "latitude": 34.576837,
    "name": "West Helena Municipal Golf Course",
    "city": "Lexa",
    "state": "AR",
    "street_address": "587 Phillips 221"
  },
  {
    "longitude": -92.146144,
    "latitude": 34.895409,
    "name": "Deer Run Golf Course LRAFB",
    "city": "Little Rock Air Force Base",
    "state": "AR",
    "street_address": "1075 Cannon Dr"
  },
  {
    "longitude": -92.357074,
    "latitude": 34.694825,
    "name": "Hindman Golf Course",
    "city": "Little Rock",
    "state": "AR",
    "street_address": "60 Brookview Dr"
  },
  {
    "longitude": -92.317886,
    "latitude": 34.779182,
    "name": "Rebsamen Park Golf Course",
    "city": "Little Rock",
    "state": "AR",
    "street_address": "3400 Rebsamen Park Rd"
  },
  {
    "longitude": -92.334989,
    "latitude": 34.751879,
    "name": "War Memorial Golf Course",
    "city": "Little Rock",
    "state": "AR",
    "street_address": "5511 W Markham St"
  },
  {
    "longitude": -92.322689,
    "latitude": 34.771807,
    "name": "Country Club of Little Rock",
    "city": "Little Rock",
    "state": "AR",
    "street_address": "4200 Country Club Blvd"
  },
  {
    "longitude": -92.405525,
    "latitude": 34.779389,
    "name": "Pleasant Valley Country Club",
    "city": "Little Rock",
    "state": "AR",
    "street_address": "2 Pleasant Valley Dr"
  },
  {
    "longitude": -92.473894,
    "latitude": 34.780896,
    "name": "Chenal Country Club",
    "city": "Little Rock",
    "state": "AR",
    "street_address": "10 Chenal Club Blvd"
  },
  {
    "longitude": -92.42943,
    "latitude": 34.675311,
    "name": "Eagle Hill Golf & Athletic Club",
    "city": "Little Rock",
    "state": "AR",
    "street_address": "3 Eagle Hill Ct Ste 3A"
  },
  {
    "longitude": -92.347679,
    "latitude": 34.711672,
    "name": "The First Tee of Central Arkansas",
    "city": "Little Rock",
    "state": "AR",
    "street_address": "#1 The First Tee Way"
  },
  {
    "longitude": -91.924208,
    "latitude": 34.79164,
    "name": "Lonoke Golf Course",
    "city": "Lonoke",
    "state": "AR",
    "street_address": "505 Mallard Point Dr"
  },
  {
    "longitude": -92.721215,
    "latitude": 33.405716,
    "name": "Pine Hills Golf & Tennis Club",
    "city": "Louann",
    "state": "AR",
    "street_address": "3111 Ouachita 67"
  },
  {
    "longitude": -94.145548,
    "latitude": 36.254758,
    "name": "The Links at Lowell",
    "city": "Lowell",
    "state": "AR",
    "street_address": "105 N Dixieland St"
  },
  {
    "longitude": -92.3651,
    "latitude": 34.634354,
    "name": "Lakeview Country Club",
    "city": "Mabelvale",
    "state": "AR",
    "street_address": "8500 Castle Valley Rd"
  },
  {
    "longitude": -93.761569,
    "latitude": 35.221893,
    "name": "Meadowbrook Golf and Country Club",
    "city": "Magazine",
    "state": "AR",
    "street_address": "6396 N State Highway 109"
  },
  {
    "longitude": -93.214085,
    "latitude": 33.196322,
    "name": "Magnolia Country Club",
    "city": "Magnolia",
    "state": "AR",
    "street_address": "1711 Highway 79 S"
  },
  {
    "longitude": -92.737872,
    "latitude": 34.285422,
    "name": "Malvern Country Club",
    "city": "Malvern",
    "state": "AR",
    "street_address": "473 Clubhouse Ln"
  },
  {
    "longitude": -90.172912,
    "latitude": 35.89492,
    "name": "Big Lake Country Club",
    "city": "Manila",
    "state": "AR",
    "street_address": "Highway 77 North"
  },
  {
    "longitude": -90.771351,
    "latitude": 34.774623,
    "name": "Marianna Country Club",
    "city": "Marianna",
    "state": "AR",
    "street_address": "418 W Chestnut St"
  },
  {
    "longitude": -90.20577,
    "latitude": 35.197191,
    "name": "Marion Golf & Athletic Club",
    "city": "Marion",
    "state": "AR",
    "street_address": "303 Club Cir"
  },
  {
    "longitude": -90.42004,
    "latitude": 35.564851,
    "name": "Three Rivers Country Club",
    "city": "Marked Tree",
    "state": "AR",
    "street_address": "34441 Country Club Rd"
  },
  {
    "longitude": -92.409534,
    "latitude": 34.846844,
    "name": "Maumelle Golf & Country Club",
    "city": "Maumelle",
    "state": "AR",
    "street_address": "100 Club Manor Dr"
  },
  {
    "longitude": -92.397051,
    "latitude": 34.843243,
    "name": "The Country Club of Arkansas",
    "city": "Maumelle",
    "state": "AR",
    "street_address": "3 Country Club Cir"
  },
  {
    "longitude": -91.351071,
    "latitude": 33.602111,
    "name": "Delta Country Club",
    "city": "Mc Gehee",
    "state": "AR",
    "street_address": "Highway 4 East"
  },
  {
    "longitude": -91.842261,
    "latitude": 36.067112,
    "name": "Coopers Hawk",
    "city": "Melbourne",
    "state": "AR",
    "street_address": "Highway 69 Spur"
  },
  {
    "longitude": -94.205659,
    "latitude": 34.582534,
    "name": "Mena Golf Club",
    "city": "Mena",
    "state": "AR",
    "street_address": "500 Lyons Park Road"
  },
  {
    "longitude": -94.180667,
    "latitude": 34.581392,
    "name": "Ouachita Golf & Country Club",
    "city": "Mena",
    "state": "AR",
    "street_address": "123 Country Club Ln"
  },
  {
    "longitude": -91.81124,
    "latitude": 33.657029,
    "name": "Monticello Country Club",
    "city": "Monticello",
    "state": "AR",
    "street_address": "134 Golf Course Dr"
  },
  {
    "longitude": -92.770682,
    "latitude": 35.161546,
    "name": "Morrilton Golf & Country Club",
    "city": "Morrilton",
    "state": "AR",
    "street_address": "1000 Country Club Rd"
  },
  {
    "longitude": -92.42101,
    "latitude": 36.320459,
    "name": "Big Creek Golf & Country Club",
    "city": "Mountain Home",
    "state": "AR",
    "street_address": "452 Country Club Dr"
  },
  {
    "longitude": -92.355932,
    "latitude": 36.353721,
    "name": "Twin Lakes Golf Club",
    "city": "Mountain Home",
    "state": "AR",
    "street_address": "70 Elk Way"
  },
  {
    "longitude": -92.09809,
    "latitude": 35.877822,
    "name": "Pine Hills Golf Course",
    "city": "Mountain View",
    "state": "AR",
    "street_address": "HC 71 Box 391"
  },
  {
    "longitude": -93.89469,
    "latitude": 33.934454,
    "name": "Nashville Country Club",
    "city": "Nashville",
    "state": "AR",
    "street_address": "283 Country Club Rd"
  },
  {
    "longitude": -91.26923,
    "latitude": 35.598412,
    "name": "Newport Country Club",
    "city": "Newport",
    "state": "AR",
    "street_address": "703 Walker Dr"
  },
  {
    "longitude": -91.211681,
    "latitude": 35.607167,
    "name": "Village Creek Golf Inc",
    "city": "Newport",
    "state": "AR",
    "street_address": "Stegal Road"
  },
  {
    "longitude": -92.303719,
    "latitude": 34.79521,
    "name": "Burns Park Golf Course",
    "city": "North Little Rock",
    "state": "AR",
    "street_address": "30 Championship Dr"
  },
  {
    "longitude": -92.28939,
    "latitude": 34.773243,
    "name": "Emerald Park Golf Course",
    "city": "North Little Rock",
    "state": "AR",
    "street_address": "2200 Fort Roots Dr"
  },
  {
    "longitude": -92.284638,
    "latitude": 34.829737,
    "name": "Camp Robinson Golf Course",
    "city": "North Little Rock",
    "state": "AR",
    "street_address": "Camp Robinson"
  },
  {
    "longitude": -92.211304,
    "latitude": 34.912735,
    "name": "Pine Valley Golf Course",
    "city": "North Little Rock",
    "state": "AR",
    "street_address": "9311 Tom Box Road"
  },
  {
    "longitude": -92.128135,
    "latitude": 34.745309,
    "name": "Stonelinks Golf Course",
    "city": "North Little Rock",
    "state": "AR",
    "street_address": "110 Highway 391 N"
  },
  {
    "longitude": -92.386995,
    "latitude": 34.836185,
    "name": "The Links At the Rock",
    "city": "North Little Rock",
    "state": "AR",
    "street_address": "12025 Paul Eells Dr"
  },
  {
    "longitude": -90.017434,
    "latitude": 35.707895,
    "name": "Osceola Golf Course",
    "city": "Osceola",
    "state": "AR",
    "street_address": "Country Club Road"
  },
  {
    "longitude": -93.794279,
    "latitude": 35.475036,
    "name": "Ozark Recreation Assoc.Club",
    "city": "Ozark",
    "state": "AR",
    "street_address": "6624 Ozark Lock & Dam Road"
  },
  {
    "longitude": -90.530849,
    "latitude": 36.037997,
    "name": "Paragould Country Club",
    "city": "Paragould",
    "state": "AR",
    "street_address": "3300 Pruetts Chapel Rd"
  },
  {
    "longitude": -90.513536,
    "latitude": 36.070946,
    "name": "Fox Hills Golf Club",
    "city": "Paragould",
    "state": "AR",
    "street_address": "2105 Country Club Rd"
  },
  {
    "longitude": -94.119635,
    "latitude": 36.421723,
    "name": "Big Sugar Golf Club",
    "city": "Pea Ridge",
    "state": "AR",
    "street_address": "1101 Sugar Creek Rd"
  },
  {
    "longitude": -91.483168,
    "latitude": 33.846977,
    "name": "Walnut Lake Country Club",
    "city": "Pickens",
    "state": "AR",
    "street_address": "100 Country Club Lane"
  },
  {
    "longitude": -90.198594,
    "latitude": 36.392341,
    "name": "Sugar Creek Country Club",
    "city": "Piggott",
    "state": "AR",
    "street_address": "Country Club Road"
  },
  {
    "longitude": -92.03916,
    "latitude": 34.238235,
    "name": "Jaycee Memorial Golf Course",
    "city": "Pine Bluff",
    "state": "AR",
    "street_address": "Oakland Park Dr"
  },
  {
    "longitude": -92.012536,
    "latitude": 34.183317,
    "name": "Pine Bluff Country Club",
    "city": "Pine Bluff",
    "state": "AR",
    "street_address": "1100 Country Club Ln"
  },
  {
    "longitude": -92.015629,
    "latitude": 34.146433,
    "name": "Rosswood Country Club",
    "city": "Pine Bluff",
    "state": "AR",
    "street_address": "7619 Rosswood Rd"
  },
  {
    "longitude": -91.987768,
    "latitude": 34.248173,
    "name": "Harbor Oaks Golf Club",
    "city": "Pine Bluff",
    "state": "AR",
    "street_address": "1 Harbor Oaks Drive"
  },
  {
    "longitude": -92.041522,
    "latitude": 34.239353,
    "name": "Pine Haven Golf Course",
    "city": "Pine Bluff",
    "state": "AR",
    "street_address": "Pine Bluff Arsenal"
  },
  {
    "longitude": -91.004824,
    "latitude": 36.320579,
    "name": "Rolling Hills Country Club",
    "city": "Pocahontas",
    "state": "AR",
    "street_address": "2365 Country Club Rd"
  },
  {
    "longitude": -93.048974,
    "latitude": 35.236504,
    "name": "Galla Creek Golf Course",
    "city": "Pottsville",
    "state": "AR",
    "street_address": "141 Golf Club Lane"
  },
  {
    "longitude": -93.375973,
    "latitude": 33.819946,
    "name": "Prescott Country Club",
    "city": "Prescott",
    "state": "AR",
    "street_address": "Highway #67 North"
  },
  {
    "longitude": -93.891908,
    "latitude": 35.303258,
    "name": "Little Creek Recreation Club",
    "city": "Ratcliff",
    "state": "AR",
    "street_address": "Highway #22 West"
  },
  {
    "longitude": -94.14766,
    "latitude": 36.360599,
    "name": "Lost Springs Golf and Athletic Club",
    "city": "Rogers",
    "state": "AR",
    "street_address": "3024 N 22nd St"
  },
  {
    "longitude": -94.199156,
    "latitude": 36.29657,
    "name": "Pinnacle Country Club",
    "city": "Rogers",
    "state": "AR",
    "street_address": "3 Clubhouse Dr"
  },
  {
    "longitude": -94.21863,
    "latitude": 36.287578,
    "name": "Shadow Valley Country Club",
    "city": "Rogers",
    "state": "AR",
    "street_address": "7001 Shadow Valley Rd"
  },
  {
    "longitude": -94.06382,
    "latitude": 36.333097,
    "name": "Prairie Creek Country Club",
    "city": "Rogers",
    "state": "AR",
    "street_address": "1585 Roundtree Dr"
  },
  {
    "longitude": -94.163407,
    "latitude": 36.29113,
    "name": "The Greens on Blossom Way",
    "city": "Rogers",
    "state": "AR",
    "street_address": "2808 S 28th Pl"
  },
  {
    "longitude": -92.581795,
    "latitude": 34.867591,
    "name": "Alotian Golf Club",
    "city": "Roland",
    "state": "AR",
    "street_address": "101 Alotian Dr"
  },
  {
    "longitude": -93.137174,
    "latitude": 35.340506,
    "name": "Russellville Country Club",
    "city": "Russellville",
    "state": "AR",
    "street_address": "Highway 7"
  },
  {
    "longitude": -91.779285,
    "latitude": 35.235572,
    "name": "Searcy Country Club",
    "city": "Searcy",
    "state": "AR",
    "street_address": "2729 W Country Club Rd"
  },
  {
    "longitude": -91.698172,
    "latitude": 35.253536,
    "name": "The Course at River Oaks",
    "city": "Searcy",
    "state": "AR",
    "street_address": "1 Golf Course Dr"
  },
  {
    "longitude": -92.449557,
    "latitude": 34.30182,
    "name": "Sheridan Country Club",
    "city": "Sheridan",
    "state": "AR",
    "street_address": "Highway 270 West"
  },
  {
    "longitude": -92.194969,
    "latitude": 34.832079,
    "name": "The Links at Sherwood",
    "city": "Sherwood",
    "state": "AR",
    "street_address": "3434 E Kiehl Ave"
  },
  {
    "longitude": -94.518608,
    "latitude": 36.227188,
    "name": "Dawn Hill Country Club",
    "city": "Siloam Springs",
    "state": "AR",
    "street_address": "13890 Turnberry Ln"
  },
  {
    "longitude": -94.521842,
    "latitude": 36.193528,
    "name": "Siloam Spring Country Club",
    "city": "Siloam Springs",
    "state": "AR",
    "street_address": "801 N Country Club Rd"
  },
  {
    "longitude": -94.144024,
    "latitude": 36.141431,
    "name": "Springdale Country Club",
    "city": "Springdale",
    "state": "AR",
    "street_address": "4705 S Thompson St"
  },
  {
    "longitude": -94.198962,
    "latitude": 36.186549,
    "name": "Brush Creek Golf Course",
    "city": "Springdale",
    "state": "AR",
    "street_address": "6220 Har Ber Ave"
  },
  {
    "longitude": -94.176033,
    "latitude": 36.170925,
    "name": "The Links At Springdale",
    "city": "Springdale",
    "state": "AR",
    "street_address": "4097 Links Dr"
  },
  {
    "longitude": -91.526679,
    "latitude": 34.479492,
    "name": "Stuttgart Country Club",
    "city": "Stuttgart",
    "state": "AR",
    "street_address": "Highway 130 East"
  },
  {
    "longitude": -94.017509,
    "latitude": 33.407402,
    "name": "Texarkana Country Club",
    "city": "Texarkana",
    "state": "AR",
    "street_address": "1 Country Club Ln"
  },
  {
    "longitude": -94.039214,
    "latitude": 33.472331,
    "name": "Links at Texarkana",
    "city": "Texarkana",
    "state": "AR",
    "street_address": "333 Links Dr"
  },
  {
    "longitude": -94.030286,
    "latitude": 33.39901,
    "name": "South Haven Golf Club",
    "city": "Texarkana",
    "state": "AR",
    "street_address": "2321 Line Ferry Rd"
  },
  {
    "longitude": -90.494768,
    "latitude": 35.660396,
    "name": "Trumann Country Club",
    "city": "Trumann",
    "state": "AR",
    "street_address": "Country Club Boulevard"
  },
  {
    "longitude": -94.346032,
    "latitude": 35.450315,
    "name": "Cedars Country Club",
    "city": "Van Buren",
    "state": "AR",
    "street_address": "1301 City Park Road"
  },
  {
    "longitude": -94.039063,
    "latitude": 34.944902,
    "name": "Waldron Country Club",
    "city": "Waldron",
    "state": "AR",
    "street_address": "Rena Owens Dr"
  },
  {
    "longitude": -90.9211,
    "latitude": 36.131943,
    "name": "Walnut Ridge Country Club",
    "city": "Walnut Ridge",
    "state": "AR",
    "street_address": "249 Lawrence 408"
  },
  {
    "longitude": -92.068389,
    "latitude": 33.553631,
    "name": "Warren Country Club",
    "city": "Warren",
    "state": "AR",
    "street_address": "525 US Highway 63 S"
  },
  {
    "longitude": -90.635456,
    "latitude": 34.531428,
    "name": "Helena Country Club",
    "city": "West Helena",
    "state": "AR",
    "street_address": "719 Walden Ridge Drive"
  },
  {
    "longitude": -90.211742,
    "latitude": 35.146244,
    "name": "Meadowbrook Country Club",
    "city": "West Memphis",
    "state": "AR",
    "street_address": "1250 W Broadway St"
  },
  {
    "longitude": -94.412623,
    "latitude": 33.924063,
    "name": "Little River Country Club",
    "city": "Winthrop",
    "state": "AR",
    "street_address": "392 Country Club Rd"
  },
  {
    "longitude": -91.040046,
    "latitude": 35.193922,
    "name": "The Resort At Village Creek",
    "city": "Wynne",
    "state": "AR",
    "street_address": "4268 Hwy 284"
  },
  {
    "longitude": -90.798047,
    "latitude": 35.25416,
    "name": "Crowley Ridge Country Club",
    "city": "Wynne",
    "state": "AR",
    "street_address": "768 Highway 64"
  },
  {
    "longitude": -112.849399,
    "latitude": 32.45322,
    "name": "Ajo Country Club",
    "city": "Ajo",
    "state": "AZ",
    "street_address": "77 W Mead Rd"
  },
  {
    "longitude": -109.1533,
    "latitude": 33.824583,
    "name": "Alpine Country Club",
    "city": "Alpine",
    "state": "AZ",
    "street_address": "100 Country Club Road"
  },
  {
    "longitude": -112.118278,
    "latitude": 33.864935,
    "name": "Anthem Golf & Country Club",
    "city": "Anthem",
    "state": "AZ",
    "street_address": "2708 W Anthem Club Dr"
  },
  {
    "longitude": -111.546234,
    "latitude": 33.40578,
    "name": "Roadhaven Golf Course",
    "city": "Apache Junction",
    "state": "AZ",
    "street_address": "1000 S Idaho Rd"
  },
  {
    "longitude": -111.563232,
    "latitude": 33.384605,
    "name": "Apache Creek Golf Club",
    "city": "Apache Junction",
    "state": "AZ",
    "street_address": "3401 S Ironwood Dr"
  },
  {
    "longitude": -111.463136,
    "latitude": 33.382644,
    "name": "Superstition Mountain Club",
    "city": "Apache Junction",
    "state": "AZ",
    "street_address": "8000 E Club Village Dr"
  },
  {
    "longitude": -111.672419,
    "latitude": 32.75558,
    "name": "Arizona City Golf Club",
    "city": "Arizona City",
    "state": "AZ",
    "street_address": "13939 E Cleator"
  },
  {
    "longitude": -112.317851,
    "latitude": 33.445263,
    "name": "Coldwater Golf Club",
    "city": "Avondale",
    "state": "AZ",
    "street_address": "100 N Clubhouse Dr"
  },
  {
    "longitude": -113.174658,
    "latitude": 34.574866,
    "name": "Mesa View Golf Course",
    "city": "Bagdad",
    "state": "AZ",
    "street_address": "4 Ash Street"
  },
  {
    "longitude": -110.298362,
    "latitude": 31.979607,
    "name": "San Pedro Golf Course",
    "city": "Benson",
    "state": "AZ",
    "street_address": "926 N Madison Ave"
  },
  {
    "longitude": -110.28251,
    "latitude": 31.949359,
    "name": "Turquoise Hills Family Golf Center",
    "city": "Benson",
    "state": "AZ",
    "street_address": "800 E Country Club Rd"
  },
  {
    "longitude": -112.618988,
    "latitude": 33.666066,
    "name": "Copper Canyon Golf Club",
    "city": "Buckeye",
    "state": "AZ",
    "street_address": "26577 W Desert Vista Blvd"
  },
  {
    "longitude": -112.515548,
    "latitude": 33.496201,
    "name": "Raven Golf Club At Verrado",
    "city": "Buckeye",
    "state": "AZ",
    "street_address": "4242 N Golf Dr"
  },
  {
    "longitude": -112.554279,
    "latitude": 33.439915,
    "name": "Sundance Golf Club",
    "city": "Buckeye",
    "state": "AZ",
    "street_address": "900 North Sundance Pkwy"
  },
  {
    "longitude": -114.603452,
    "latitude": 35.082277,
    "name": "Chaparral Golf & Country Club",
    "city": "Bullhead City",
    "state": "AZ",
    "street_address": "1260 Mohave Dr"
  },
  {
    "longitude": -114.527224,
    "latitude": 35.137459,
    "name": "Laughlin Ranch Golf Club",
    "city": "Bullhead City",
    "state": "AZ",
    "street_address": "1360 William Hardy Dr"
  },
  {
    "longitude": -111.908507,
    "latitude": 33.821838,
    "name": "Desert Forest Golf Club",
    "city": "Carefree",
    "state": "AZ",
    "street_address": "37207 N Mule Train Rd"
  },
  {
    "longitude": -111.926371,
    "latitude": 33.803453,
    "name": "The Boulders Resort Golf Club",
    "city": "Carefree",
    "state": "AZ",
    "street_address": "34831 N Tom Darlington Drive"
  },
  {
    "longitude": -111.926371,
    "latitude": 33.803453,
    "name": "The Boulders Resort Golf Club",
    "city": "Carefree",
    "state": "AZ",
    "street_address": "34831 N Tom Darlington Drive"
  },
  {
    "longitude": -111.774245,
    "latitude": 32.900659,
    "name": "Dave White Municipal Golf Course",
    "city": "Casa Grande",
    "state": "AZ",
    "street_address": "2121 N Thornton Rd"
  },
  {
    "longitude": -111.847234,
    "latitude": 32.880215,
    "name": "Francisco Grande Resort and Golf Course",
    "city": "Casa Grande",
    "state": "AZ",
    "street_address": "12684 W Gila Bend Hwy"
  },
  {
    "longitude": -111.671746,
    "latitude": 32.870491,
    "name": "Mission Royale Golf Club",
    "city": "Casa Grande",
    "state": "AZ",
    "street_address": "11 Mission Royale South 1"
  },
  {
    "longitude": -111.705073,
    "latitude": 32.88689,
    "name": "Palm Creek Golf & RV Resort",
    "city": "Casa Grande",
    "state": "AZ",
    "street_address": "1110 N Henness Rd"
  },
  {
    "longitude": -111.765289,
    "latitude": 32.91618,
    "name": "Tierra Grande Golf Club",
    "city": "Casa Grande",
    "state": "AZ",
    "street_address": "813 W Calle Rosa"
  },
  {
    "longitude": -111.985701,
    "latitude": 33.75902,
    "name": "Tatum Ranch Golf Course",
    "city": "Cave Creek",
    "state": "AZ",
    "street_address": "29888 N Tatum Ranch Dr"
  },
  {
    "longitude": -111.995124,
    "latitude": 33.790935,
    "name": "Dove Valley Ranch",
    "city": "Cave Creek",
    "state": "AZ",
    "street_address": "33750 N Black Mountain Pkwy"
  },
  {
    "longitude": -111.955382,
    "latitude": 33.832267,
    "name": "Rancho Manana Golf Club",
    "city": "Cave Creek",
    "state": "AZ",
    "street_address": "5734 E Rancho Manana Blvd"
  },
  {
    "longitude": -111.880049,
    "latitude": 33.21159,
    "name": "Sun Lakes Country Club",
    "city": "Chandler",
    "state": "AZ",
    "street_address": "25425 N Sunlakes Blvd"
  },
  {
    "longitude": -111.832128,
    "latitude": 33.2188,
    "name": "Bear Creek Golf Course",
    "city": "Chandler",
    "state": "AZ",
    "street_address": "500 E Riggs Rd"
  },
  {
    "longitude": -111.848682,
    "latitude": 33.224324,
    "name": "Ironwood Golf Club",
    "city": "Chandler",
    "state": "AZ",
    "street_address": "550 W Champagne Dr"
  },
  {
    "longitude": -111.78242,
    "latitude": 33.21515,
    "name": "Lone Tree Golf Club",
    "city": "Chandler",
    "state": "AZ",
    "street_address": "6262 S Mountain Blvd"
  },
  {
    "longitude": -111.871932,
    "latitude": 33.249948,
    "name": "Ocotillo Golf Resort",
    "city": "Chandler",
    "state": "AZ",
    "street_address": "3751 S Clubhouse Dr"
  },
  {
    "longitude": -111.842187,
    "latitude": 33.303516,
    "name": "San Marcos Golf Resort",
    "city": "Chandler",
    "state": "AZ",
    "street_address": "1 N San Marcos Pl"
  },
  {
    "longitude": -111.821787,
    "latitude": 33.211449,
    "name": "Springfield Golf Resort",
    "city": "Chandler",
    "state": "AZ",
    "street_address": "1200 E St Andrews Blvd"
  },
  {
    "longitude": -111.809432,
    "latitude": 33.215485,
    "name": "SunBird Golf Club",
    "city": "Chandler",
    "state": "AZ",
    "street_address": "6240 S Sunbird Blvd"
  },
  {
    "longitude": -111.986398,
    "latitude": 33.271388,
    "name": "Whirlwind Golf Club",
    "city": "Chandler",
    "state": "AZ",
    "street_address": "5692 W North Loop Rd"
  },
  {
    "longitude": -109.633792,
    "latitude": 34.435647,
    "name": "Concho Valley Country Club",
    "city": "Concho",
    "state": "AZ",
    "street_address": "7 CR 5100"
  },
  {
    "longitude": -111.964056,
    "latitude": 34.72721,
    "name": "Verde Santa Fe Golf Club",
    "city": "Cornville",
    "state": "AZ",
    "street_address": "645 Verde Sante Fe Pkwy"
  },
  {
    "longitude": -110.772278,
    "latitude": 31.956685,
    "name": "Santa Rita Golf Club",
    "city": "Corona de Tucson",
    "state": "AZ",
    "street_address": "16461 S Houghton Rd"
  },
  {
    "longitude": -112.045125,
    "latitude": 34.747123,
    "name": "Pine Shadows Golf Course",
    "city": "Cottonwood",
    "state": "AZ",
    "street_address": "1480 W Groseta Ranch Rd"
  },
  {
    "longitude": -112.26407,
    "latitude": 34.558657,
    "name": "Prescott Golf & Country Club",
    "city": "Dewey",
    "state": "AZ",
    "street_address": "1030 N Prescott Country Club Blvd"
  },
  {
    "longitude": -112.250966,
    "latitude": 34.549587,
    "name": "Quail Wood Greens Golf Course",
    "city": "Dewey",
    "state": "AZ",
    "street_address": "12200 E State Route 69"
  },
  {
    "longitude": -109.54111,
    "latitude": 31.37443,
    "name": "Douglas Golf and Social Club",
    "city": "Douglas",
    "state": "AZ",
    "street_address": "1372 E Fairway Dr"
  },
  {
    "longitude": -109.193156,
    "latitude": 32.901486,
    "name": "Greenlee Country Club",
    "city": "Duncan",
    "state": "AZ",
    "street_address": "Highway 75"
  },
  {
    "longitude": -109.305222,
    "latitude": 33.951865,
    "name": "River Run Golf Course",
    "city": "Eagar",
    "state": "AZ",
    "street_address": "21 N Grist Mill Rd"
  },
  {
    "longitude": -112.32455,
    "latitude": 33.58828,
    "name": "Pueblo Golf Course",
    "city": "El Mirage",
    "state": "AZ",
    "street_address": "11201 N El Mirage Rd"
  },
  {
    "longitude": -111.619345,
    "latitude": 32.769781,
    "name": "Grande Valley Golf Club",
    "city": "Eloy",
    "state": "AZ",
    "street_address": "1505 N Toltec Rd"
  },
  {
    "longitude": -111.640113,
    "latitude": 32.815564,
    "name": "Robson Ranch Golf Club",
    "city": "Eloy",
    "state": "AZ",
    "street_address": "5750 N Robson Blvd"
  },
  {
    "longitude": -111.59019,
    "latitude": 35.198908,
    "name": "Aspen Valley Golf Club",
    "city": "Flagstaff",
    "state": "AZ",
    "street_address": "1855 N Continental Dr"
  },
  {
    "longitude": -111.711653,
    "latitude": 35.180781,
    "name": "Flagstaff Ranch Golf Club",
    "city": "Flagstaff",
    "state": "AZ",
    "street_address": "3605 S Flagstaff Ranch Rd"
  },
  {
    "longitude": -111.703289,
    "latitude": 35.116884,
    "name": "Forest Highlands Golf Club",
    "city": "Flagstaff",
    "state": "AZ",
    "street_address": "1 Forest Highlands"
  },